price,location,geo_lat,geo_lng,metro,floor,floor_count,square,living_square,kitchen_square,year,finish_type,ceiling_height,view,house_type,heating,breakdown,parking,accomodation_type,author,url
25436790,"Москва, СВАО, р-н Марьина роща, Тэйт жилой комплекс",55.8025300783107,37.62094537252544,Марьина Роща,20,49,61.89,24.2,unknown,2027,Предчистовая,3.1,unknown,Монолитно-кирпичный,unknown,unknown,unknown,Новостройка,КОРТРОС,https://www.cian.ru/sale/flat/305005751/
27927000,"Москва, ЗАО, р-н Раменки, Мичуринский просп., 21К1",55.69937,37.503729,Раменки,12,17,57.8,36.6,8.0,2000,Евроремонт,2.64,Во двор,Панельный,Центральное,Нет,unknown,Вторичка,unknown,https://www.cian.ru/sale/flat/303944988/
22619797,"Москва, ЗАО, р-н Кунцево, 48-й квартал, Кутузовский Квартал жилой комплекс",55.728900591784566,37.43294646961893,Кунцевская,6,44,56.57,27.6,17.8,2027,"Без отделки, предчистовая",2.92,unknown,Монолитный,unknown,unknown,unknown,Новостройка,Среда,https://www.cian.ru/sale/flat/306563127/
31700000,"Москва, ЦАО, р-н Пресненский, Ходынская ул., 2",55.770806,37.564212,Улица 1905 года,24,44,69.0,28.0,12.0,2018,Дизайнерский,unknown,Во двор,Монолитный,Индивидуальный тепловой пункт,Нет,unknown,Вторичка / Апартаменты,unknown,https://www.cian.ru/sale/flat/304329908/
73044017,"Москва, ЦАО, р-н Пресненский, 1-й Красногвардейский проезд, 21с2",55.7496709812864,37.5340000330648,Москва,52,85,90.8,61.4,unknown,2015,-,unknown,unknown,Монолитный,unknown,unknown,unknown,Новостройка / Апартаменты,Capital Group,https://www.cian.ru/sale/flat/291360099/
32500000,"Москва, ЦАО, р-н Тверской, 2-я Брестская ул., 6",55.770811,37.591189,Маяковская,10,12,55.0,unknown,25.0,unknown,Дизайнерский,unknown,unknown,unknown,unknown,unknown,unknown,Вторичка / Апартаменты,unknown,https://www.cian.ru/sale/flat/306915055/
48763500,"Москва, СЗАО, р-н Покровское-Стрешнево, Клубный Город на Реке Примавера жилой комплекс, Вивальди квартал",55.8133713914723,37.4246699067451,Спартак,5,7,72.5,30.3,4.8,2025,Без отделки,3.08,unknown,Монолитный,unknown,unknown,unknown,Новостройка,"ООО ""СЗ ""Стадион ""Спартак""",https://www.cian.ru/sale/flat/301735403/
42000000,"Москва, ЗАО, р-н Раменки, Мосфильмовская ул., 74Б",55.711108,37.504708,Ломоносовский проспект,12,29,72.9,46.0,10.0,2017,Дизайнерский,3.0,Во двор,Монолитный,Нет информации,Нет,unknown,Вторичка / Апартаменты,unknown,https://www.cian.ru/sale/flat/306828495/
23243972,"Москва, ЮАО, р-н Даниловский, Павелецкая Сити жилой комплекс",55.718765,37.636392,Павелецкая,13,21,59.5,39.7,unknown,2027,"Без отделки, предчистовая",3.02,unknown,"Монолитно-кирпичный, монолитный, кирпичный",unknown,unknown,unknown,Новостройка,MR Group,https://www.cian.ru/sale/flat/306614294/
42000000,"Москва, САО, р-н Хорошевский, Хорошевское ш., 25Ак3",55.77634,37.525109,Хорошёвская,19,24,70.0,45.0,10.0,2020,Дизайнерский,unknown,На улицу,unknown,Индивидуальный тепловой пункт,Нет,unknown,Вторичка,unknown,https://www.cian.ru/sale/flat/300284866/
41658700,"Москва, ЗАО, р-н Раменки, проезд 4-й Сетуньский, 10Ас2",55.732445568601,37.5336225972051,Парк Победы,9,34,67.3,45.9,6.5,2028,Предчистовая,3.25,На улицу,Монолитно-кирпичный,unknown,unknown,unknown,Новостройка,Dominanta,https://www.cian.ru/sale/flat/304842169/
47970000,"Москва, ЦАО, р-н Таганский, Серебрянический пер., 8",55.750185,37.647073,Китай,2,8,61.5,36.5,20.0,2021,Без ремонта,unknown,Во двор,Монолитный,unknown,unknown,unknown,Вторичка / Апартаменты,unknown,https://www.cian.ru/sale/flat/303290499/
43845692,"Москва, ЦАО, р-н Пресненский, ул. Пресненский Вал, 27С6",55.7740185078958,37.5740440080382,Белорусская,26,33,68.02,25.6,24.0,2027,"Без отделки, предчистовая",2.98,unknown,Монолитный,unknown,unknown,unknown,Новостройка,FORMA,https://www.cian.ru/sale/flat/305605314/
68000000,"Москва, ЦАО, р-н Пресненский, Мантулинская ул., 9к6",55.75475,37.541889,Деловой центр,4,21,65.0,35.0,15.0,2020,Дизайнерский,unknown,Во двор,Монолитный,Центральное,Нет,unknown,Вторичка,unknown,https://www.cian.ru/sale/flat/303546242/
15500000,"Москва, СЗАО, р-н Северное Тушино, ул. Свободы, 81С5",55.860261,37.442077,Планерная,11,12,47.0,unknown,7.0,1971,Дизайнерский,unknown,Во двор,Панельный,Центральное,Нет,unknown,Вторичка,unknown,https://www.cian.ru/sale/flat/306954457/
16500000,"Москва, САО, р-н Сокол, ул. Константина Царева, 18",55.813288,37.497692,Войковская,1,9,50.0,unknown,10.0,1965,Евроремонт,2.5,unknown,Кирпичный,Центральное,Нет,unknown,Вторичка,unknown,https://www.cian.ru/sale/flat/304628511/
20500000,"Москва, ЮЗАО, р-н Котловка, Большая Черемушкинская ул., 25С14",55.677844,37.592204,Нагорная,26,42,46.0,26.0,15.0,2023,Без ремонта,unknown,На улицу,Монолитный,unknown,unknown,unknown,Вторичка,unknown,https://www.cian.ru/sale/flat/301313976/
21500000,"Москва, САО, р-н Хорошевский, Зорге 9 жилой комплекс, 9Ак1",55.783134,37.509514,Полежаевская,2,21,46.0,32.0,6.0,unknown,Дизайнерский,unknown,Во двор,Монолитный,unknown,unknown,unknown,Вторичка / Апартаменты,unknown,https://www.cian.ru/sale/flat/301847008/
23500000,"Москва, СЗАО, р-н Хорошево-Мневники, Шелепихинская наб., 34к6",55.763954,37.509792,Шелепиха,8,46,43.5,20.0,10.0,2023,Дизайнерский,unknown,unknown,unknown,Нет информации,Нет,unknown,Вторичка,unknown,https://www.cian.ru/sale/flat/303933867/
25300000,"Москва, ЗАО, р-н Раменки, ул. Василия Ланового, 3",55.695662,37.478037,Аминьевская,7,10,43.3,unknown,17.8,2024,Без ремонта,unknown,unknown,unknown,Нет информации,Нет,unknown,Вторичка,unknown,https://www.cian.ru/sale/flat/306666397/
26000000,"Москва, ЗАО, р-н Филевский парк, Багратионовский проезд, 5Ак1",55.743886,37.510322,Фили,3,42,44.4,26.3,8.0,2021,Дизайнерский,3.1,Во двор,Монолитный,Индивидуальный тепловой пункт,Нет,unknown,Вторичка,unknown,https://www.cian.ru/sale/flat/301027232/
28000000,"Москва, САО, р-н Войковский, Выборгская ул., 7к2",55.835786,37.49524,Водный стадион,6,23,58.3,28.0,22.0,2016,Дизайнерский,3.1,unknown,Монолитный,Центральное,Нет,unknown,Вторичка,unknown,https://www.cian.ru/sale/flat/302717689/
29500000,"Москва, СЗАО, р-н Хорошево-Мневники, ул. Народного Ополчения, 13",55.772943,37.472899,Народное Ополчение,10,21,76.3,50.0,10.0,2023,Без ремонта,unknown,unknown,Монолитный,unknown,unknown,unknown,Вторичка / Апартаменты,unknown,https://www.cian.ru/sale/flat/305980470/
30490000,"Москва, СЗАО, р-н Покровское-Стрешнево, Алиа жилой комплекс, к6",55.819641,37.425737,Спартак,22,26,67.0,26.4,17.0,2023,Без ремонта,3.0,На улицу и двор,Монолитный,unknown,unknown,unknown,Вторичка,unknown,https://www.cian.ru/sale/flat/300111482/
31987039,"Москва, ЗАО, р-н Филевский парк, Береговой проезд, 2",55.7597681819349,37.5078063512008,Фили,8,22,67.1,21.5,22.3,2024,Без отделки,3.2,На улицу,Монолитно-кирпичный,unknown,unknown,unknown,Новостройка,Главстрой,https://www.cian.ru/sale/flat/296921186/
40000000,"Москва, САО, р-н Хорошевский, Ленинградский просп., 37/6",55.794173,37.542213,Аэропорт,39,41,56.9,32.6,6.5,2021,unknown,unknown,На улицу и двор,Монолитный,Центральное,Нет,unknown,Вторичка,unknown,https://www.cian.ru/sale/flat/301763282/
19300000,"Москва, ЗАО, р-н Кунцево, Рублевское ш., 26К1",55.745787,37.426294,Молодёжная,11,17,59.0,unknown,unknown,1988,Евроремонт,2.8,На улицу и двор,unknown,Центральное,Нет,unknown,Вторичка,unknown,https://www.cian.ru/sale/flat/299121498/
44129000,"Москва, ЗАО, р-н Крылатское, Крылатская ул., 23",55.7713506652959,37.4147564920653,Крылатское,4,27,65.91,43.3,17.6,2027,Без отделки,3.1,unknown,Монолитный,unknown,unknown,unknown,Новостройка,TOUCH,https://www.cian.ru/sale/flat/305603331/
68000000,"Москва, ЦАО, р-н Пресненский, ул. Костикова, 4к1",55.761269,37.557322,Улица 1905 года,2,21,72.0,unknown,unknown,2023,Дизайнерский,unknown,unknown,unknown,Нет информации,Нет,unknown,Вторичка,unknown,https://www.cian.ru/sale/flat/303480182/
16499000,"Москва, ЮАО, р-н Бирюлево Восточное, 6-я Радиальная ул., 7/1к2",55.603776,37.653209,Царицыно,3,22,65.0,34.0,11.5,2023,Евроремонт,2.65,На улицу и двор,unknown,Нет информации,Нет,unknown,Вторичка,unknown,https://www.cian.ru/sale/flat/305232573/
23496679,"Москва, СВАО, р-н Марьина роща, Полковая ул., 1С12",55.7986280976491,37.5975001540744,Марьина Роща,2,22,47.2,unknown,unknown,2025,"Без отделки, чистовая",3.0,unknown,Монолитный,unknown,unknown,unknown,Новостройка,Компания PIONEER,https://www.cian.ru/sale/flat/306809948/
18950000,"Москва, ЦАО, р-н Басманный, ул. Казакова, 3С4",55.763472,37.658185,Курская,3,5,34.0,20.0,7.0,1900,Дизайнерский,3.3,Во двор,unknown,Центральное,Нет,unknown,Вторичка,unknown,https://www.cian.ru/sale/flat/306524206/
9550000,"Московская область, Королев, мкр. Болшево, Бурковский проезд, 44к3",55.930902,37.882989,Медведково,3,4,50.1,21.0,16.0,2019,Дизайнерский,2.7,На улицу и двор,Кирпичный,Центральное,Нет,unknown,Вторичка,unknown,https://korolev.cian.ru/sale/flat/305185855/
150400000,"Москва, ЦАО, р-н Арбат, ул. Арбат, 39",55.7487617544371,37.5895374169819,Смоленская,3,5,178.6,unknown,unknown,2019,Черновая,5.5,На улицу и двор,Монолитно-кирпичный,unknown,unknown,unknown,Новостройка,Era One Holding,https://www.cian.ru/sale/flat/306783471/
38500000,"Москва, СЗАО, р-н Хорошево-Мневники, Шелепихинская наб., 34к3зд7",55.763214,37.515191,Шелепиха,24,24,57.4,28.0,15.6,unknown,Дизайнерский,unknown,unknown,Монолитно-кирпичный,unknown,unknown,unknown,Вторичка,unknown,https://www.cian.ru/sale/flat/305646078/
14850000,"Москва, ВАО, р-н Богородское, Бойцовая ул., 22К1",55.814973,37.724355,Бульвар Рокоссовского,4,5,56.3,34.8,10.0,1949,Косметический,3.0,Во двор,Монолитный,Центральное,Нет,unknown,Вторичка,unknown,https://www.cian.ru/sale/flat/304088910/
69134455,"Москва, ЦАО, р-н Таганский, Серебрянический пер., 8",55.7502427832298,37.6466762685083,Китай,7,9,69.9,18.3,34.6,2021,Без отделки,3.6,unknown,"Монолитно-кирпичный, монолитный",unknown,unknown,unknown,Новостройка / Апартаменты,Центр-Инвест,https://www.cian.ru/sale/flat/306675154/
82500000,"Москва, ЦАО, р-н Тверской, 1-я Тверская-Ямская ул., 2",55.77079,37.595492,Маяковская,6,9,63.3,42.0,10.0,2023,Дизайнерский,unknown,Во двор,Монолитный,unknown,unknown,unknown,Вторичка / Апартаменты,unknown,https://www.cian.ru/sale/flat/305605101/
24500000,"Москва, СЗАО, р-н Щукино, ул. Берзарина, 30",55.790712,37.474444,Октябрьское поле,21,23,54.3,unknown,29.1,2020,Евроремонт,2.66,unknown,Монолитный,Индивидуальный тепловой пункт,Нет,unknown,Вторичка,unknown,https://www.cian.ru/sale/flat/306715329/
21656340,"Москва, ЮЗАО, р-н Обручевский, Эвер жилой комплекс",55.65987505964476,37.53329669074726,Воронцовская,7,34,41.4,23.0,unknown,2025,"Без отделки, предчистовая",3.0,unknown,Монолитный,unknown,unknown,unknown,Новостройка,TEKTA GROUP,https://www.cian.ru/sale/flat/303224329/
74000000,"Москва, ЮЗАО, р-н Обручевский, Профсоюзная ул., 64к2",55.665477,37.547665,Новые Черёмушки,38,40,115.4,53.0,20.0,2013,Дизайнерский,3.5,На улицу,Монолитный,Центральное,Нет,unknown,Вторичка,unknown,https://www.cian.ru/sale/flat/304819918/
15450000,"Москва, ЗАО, р-н Кунцево, Рублевское ш., 85К3",55.738095,37.428531,Молодёжная,6,9,40.0,unknown,unknown,1963,Дизайнерский,2.64,На улицу,Блочный,Центральное,Нет,unknown,Вторичка,unknown,https://www.cian.ru/sale/flat/301390122/
37066231,"Москва, СВАО, р-н Останкинский, просп. Мира, 95",55.8077844836563,37.6349410489341,Алексеевская,13,15,74.9,unknown,unknown,2021,"Без отделки, чистовая",unknown,unknown,Монолитный,unknown,unknown,unknown,Новостройка / Апартаменты,СИТИ21,https://www.cian.ru/sale/flat/305501942/
23700000,"Москва, ЮЗАО, р-н Обручевский, ул. Академика Волгина, 2С1",55.6563837159616,37.5232564993334,Калужская,39,47,60.7,31.3,11.3,2024,Без отделки,unknown,На улицу и двор,Монолитный,unknown,unknown,unknown,Новостройка,unknown,https://www.cian.ru/sale/flat/304590808/
10990000,"Москва, НАО (Новомосковский), Московский поселение, Филатов Луг жилой комплекс, ул. Картмазовские Пруды, 2к3",55.613941,37.386813,Филатов Луг,21,22,39.9,25.0,9.0,2020,Дизайнерский,2.8,Во двор,Монолитный,Центральное,Нет,unknown,Вторичка,unknown,https://www.cian.ru/sale/flat/301449141/
49382520,"Москва, ЮАО, р-н Даниловский, ул. Серпуховский Вал, 7с16",55.7106226257462,37.6143546772458,Тульская,10,15,53.7,unknown,unknown,2027,"Предчистовая, чистовая",3.2,unknown,Монолитно-кирпичный,unknown,unknown,unknown,Новостройка,Колди (Coldy),https://www.cian.ru/sale/flat/304471784/
80250000,"Москва, ЦАО, р-н Тверской, 1-я Тверская-Ямская ул., 2",55.77079,37.595492,Маяковская,8,9,64.2,unknown,unknown,2023,Дизайнерский,3.6,Во двор,Монолитный,unknown,unknown,unknown,Вторичка / Апартаменты,unknown,https://www.cian.ru/sale/flat/297469215/
9700000,"Московская область, Красногорск, бул. Космонавтов, 1",55.834391,37.272134,Митино,16,24,82.0,42.0,14.0,2012,Косметический,2.8,На улицу и двор,Монолитный,Центральное,Нет,unknown,Вторичка,unknown,https://krasnogorsk.cian.ru/sale/flat/294741975/
34391600,"Москва, ЗАО, р-н Раменки, проезд 4-й Сетуньский, 10Ас2",55.732445568601,37.5336225972051,Парк Победы,18,34,50.8,29.7,5.9,2028,Предчистовая,3.25,На улицу,Монолитно-кирпичный,unknown,unknown,unknown,Новостройка,Dominanta,https://www.cian.ru/sale/flat/304842332/
155000000,"Москва, ЦАО, р-н Тверской, Никольская ул., 10",55.757957,37.624534,Площадь Революции,2,5,106.0,25.0,25.0,unknown,Дизайнерский,unknown,Во двор,Кирпичный,unknown,unknown,unknown,Вторичка / Апартаменты,unknown,https://www.cian.ru/sale/flat/303137027/
10000000,"Москва, НАО (Новомосковский), ул. Офицерская, 14",55.506107,37.33366,Новомосковская,8,9,47.0,unknown,8.0,1976,Евроремонт,2.64,unknown,unknown,Центральное,Нет,unknown,Вторичка,unknown,https://www.cian.ru/sale/flat/306229752/
11500000,"Москва, СВАО, р-н Ярославский, ул. Проходчиков, 16",55.8769,37.724292,Медведково,5,12,51.8,30.1,8.4,1982,Без ремонта,2.64,На улицу и двор,Панельный,Центральное,Нет,unknown,Вторичка,unknown,https://www.cian.ru/sale/flat/306784624/
11900000,"Московская область, Красногорск, мкр. Опалиха, ул. Игоря Мерлушкина, 12",55.837298,37.26537,Митино,23,24,62.8,27.9,14.9,2015,Евроремонт,2.8,Во двор,Монолитный,Центральное,Нет,unknown,Вторичка,unknown,https://krasnogorsk.cian.ru/sale/flat/298701771/
13200000,"Москва, ВАО, р-н Преображенское, Халтуринская ул., 17",55.803459,37.724652,Преображенская площадь,5,9,40.8,unknown,6.0,1970,Косметический,unknown,Во двор,Кирпичный,Центральное,Нет,unknown,Вторичка,unknown,https://www.cian.ru/sale/flat/305472526/
13500000,"Московская область, Красногорск, ул. Липовой Рощи, 4к4",55.799026,37.373779,Строгино,9,33,58.0,unknown,16.2,unknown,Евроремонт,2.75,На улицу,unknown,unknown,unknown,unknown,Вторичка / Апартаменты,unknown,https://krasnogorsk.cian.ru/sale/flat/306522754/
13600000,"Москва, ЗАО, р-н Можайский, Можайское ш., 22",55.720824,37.426007,Рабочий посёлок,4,9,46.5,28.4,7.5,1964,Косметический,2.5,Во двор,Кирпичный,unknown,unknown,unknown,Вторичка,unknown,https://www.cian.ru/sale/flat/305029529/
15000000,"Москва, ЗАО, р-н Солнцево, Боровское ш., 2Ак4",55.661262,37.410142,Говорово,3,14,46.0,unknown,11.0,2017,Евроремонт,2.64,unknown,Монолитный,Индивидуальный тепловой пункт,Нет,unknown,Вторичка,unknown,https://www.cian.ru/sale/flat/305666553/
16100000,"Московская область, Красногорск, мкр. Павшинская пойма, бул. Красногорский, 26",55.820789,37.376842,Мякинино,25,25,60.0,31.8,15.9,2014,Евроремонт,2.7,Во двор,Панельный,Центральное,Нет,unknown,Вторичка,unknown,https://krasnogorsk.cian.ru/sale/flat/303228122/
19990000,"Москва, ЮЗАО, р-н Черемушки, Нахимовский просп., 67К2",55.679702,37.556667,Профсоюзная,2,12,52.0,30.3,9.8,2011,Дизайнерский,2.75,Во двор,Панельный,Центральное,Нет,unknown,Вторичка,unknown,https://www.cian.ru/sale/flat/305979666/
27650000,"Москва, ЮВАО, р-н Печатники, Южнопортовая ул.",55.69182779634544,37.71519972958988,Кожуховская,6,22,70.5,25.8,21.3,2025,Без отделки,2.95,unknown,Монолитный,unknown,unknown,unknown,Новостройка,unknown,https://www.cian.ru/sale/flat/299609460/
28500000,"Москва, ЮАО, р-н Даниловский, Дербеневская ул., 20",55.72027809095935,37.64693679496661,Павелецкая,27,33,47.4,29.0,4.0,2026,unknown,3.15,На улицу и двор,Монолитный,unknown,unknown,unknown,Новостройка,unknown,https://www.cian.ru/sale/flat/301276195/
29800000,"Москва, СЗАО, р-н Покровское-Стрешнево, Волоколамское ш., 71/13к1",55.815418,37.426132,Спартак,4,13,52.0,36.2,10.6,2022,Дизайнерский,unknown,На улицу и двор,Монолитный,Индивидуальный тепловой пункт,Нет,unknown,Вторичка,unknown,https://www.cian.ru/sale/flat/304380459/
36000000,"Москва, ЮАО, р-н Даниловский, просп. Лихачева, 10",55.691308,37.656757,Технопарк,7,13,60.3,32.0,10.0,2021,Дизайнерский,3.1,На улицу,Монолитный,unknown,unknown,unknown,Вторичка,unknown,https://www.cian.ru/sale/flat/291685004/
43500000,"Москва, СЗАО, р-н Хорошево-Мневники, Шелепихинская наб., 34к2",55.763057,37.508894,Шелепиха,35,37,61.2,12.0,19.2,2018,Дизайнерский,3.1,На улицу,Монолитный,Центральное,Нет,unknown,Вторичка,unknown,https://www.cian.ru/sale/flat/304302879/
48000000,"Москва, ЦАО, р-н Пресненский, наб. Пресненская, 8с1",55.747115,37.539078,Деловой центр,23,73,80.0,unknown,18.0,2010,Дизайнерский,unknown,На улицу,Монолитный,Нет информации,Нет,unknown,Вторичка / Апартаменты,unknown,https://www.cian.ru/sale/flat/305595942/
50000000,"Москва, ЦАО, р-н Пресненский, 1-й Красногвардейский проезд, 22с2",55.751584,37.535332,Деловой центр,47,78,72.0,unknown,15.0,2020,Дизайнерский,3.9,На улицу,Монолитный,Нет информации,Нет,unknown,Вторичка / Апартаменты,unknown,https://www.cian.ru/sale/flat/305044675/
51100000,"Москва, ЦАО, р-н Пресненский, 1-й Красногвардейский проезд, 22с2",55.751584,37.535332,Деловой центр,37,78,73.0,unknown,unknown,2019,Дизайнерский,3.9,На улицу,Монолитный,Нет информации,Нет,unknown,Вторичка / Апартаменты,unknown,https://www.cian.ru/sale/flat/296702605/
55000000,"Москва, ЦАО, р-н Пресненский, 1-й Красногвардейский проезд, 22с1",55.751138,37.533742,Деловой центр,49,68,78.0,unknown,18.0,unknown,Дизайнерский,unknown,На улицу,Монолитный,unknown,unknown,unknown,Вторичка / Апартаменты,unknown,https://www.cian.ru/sale/flat/304593465/
57000000,"Москва, ЦАО, р-н Пресненский, 1-й Красногвардейский проезд, 22с2",55.751584,37.535332,Деловой центр,42,78,82.0,unknown,18.0,2020,Дизайнерский,3.9,На улицу,Монолитный,Нет информации,Нет,unknown,Вторичка / Апартаменты,unknown,https://www.cian.ru/sale/flat/304971289/
57500000,"Москва, ЦАО, р-н Пресненский, 1-й Красногвардейский проезд, 22с2",55.751584,37.535332,Деловой центр,39,78,82.0,unknown,18.0,2020,Дизайнерский,3.9,На улицу,Монолитный,Нет информации,Нет,unknown,Вторичка / Апартаменты,unknown,https://www.cian.ru/sale/flat/304970763/
59000000,"Москва, ЦАО, р-н Пресненский, 1-й Красногвардейский проезд, 22с2",55.751584,37.535332,Деловой центр,66,78,84.0,unknown,18.0,2020,Дизайнерский,3.9,На улицу,Монолитный,Нет информации,Нет,unknown,Вторичка / Апартаменты,unknown,https://www.cian.ru/sale/flat/304864128/
62000000,"Москва, ЦАО, р-н Пресненский, 1-й Красногвардейский проезд, 21с2",55.74938,37.534092,Деловой центр,23,85,91.0,unknown,unknown,2016,Дизайнерский,3.0,На улицу,Монолитный,Нет информации,Нет,unknown,Вторичка / Апартаменты,unknown,https://www.cian.ru/sale/flat/302341458/
65000000,"Москва, ЦАО, р-н Пресненский, 1-й Красногвардейский проезд, 22с2",55.751584,37.535332,Деловой центр,47,78,72.0,unknown,unknown,2019,Дизайнерский,3.9,На улицу,Монолитный,Нет информации,Нет,unknown,Вторичка / Апартаменты,unknown,https://www.cian.ru/sale/flat/296593210/
77000000,"Москва, ЦАО, р-н Пресненский, 1-й Красногвардейский проезд, 22с2",55.751584,37.535332,Деловой центр,25,78,96.0,unknown,unknown,2020,Дизайнерский,3.9,На улицу,Монолитный,Нет информации,Нет,unknown,Вторичка / Апартаменты,unknown,https://www.cian.ru/sale/flat/302334503/
4500000,"Московская область, Солнечногорск, Комплексной застройки Тимоново квартал, ул. Подмосковная, 8",56.218081,37.030236,unknown,4,5,41.0,27.0,6.0,1968,Косметический,unknown,На улицу и двор,Блочный,Центральное,Нет,unknown,Вторичка,unknown,https://solnechnogorsk.cian.ru/sale/flat/305889466/
113000000,"Москва, ЦАО, р-н Арбат, ул. Арбат, 39",55.748756,37.589509,Смоленская,2,7,65.1,unknown,25.0,2016,Дизайнерский,3.3,На улицу,Монолитно-кирпичный,Центральное,Нет,unknown,Вторичка,unknown,https://www.cian.ru/sale/flat/303953557/
145000000,"Москва, ЦАО, р-н Якиманка, ул. Малая Полянка, 2",55.736523,37.61715,Полянка,3,9,135.4,unknown,unknown,2007,Дизайнерский,3.2,На улицу,Кирпичный,Индивидуальный тепловой пункт,Нет,unknown,Вторичка,unknown,https://www.cian.ru/sale/flat/295368581/
172800000,"Москва, ЦАО, р-н Хамовники, Пречистенская наб., 43",55.745929,37.607655,Кропоткинская,2,5,64.0,unknown,7.0,2021,Без ремонта,3.4,На улицу и двор,unknown,unknown,unknown,unknown,Вторичка / Апартаменты,unknown,https://www.cian.ru/sale/flat/289514736/
215574000,"Москва, ЦАО, р-н Таганский, Серебряническая наб., 19",55.750018,37.649741,Чкаловская,2,6,140.0,100.0,14.0,2014,Дизайнерский,unknown,На улицу,Монолитный,Индивидуальный тепловой пункт,Нет,unknown,Вторичка,unknown,https://www.cian.ru/sale/flat/302250937/
3000000,"Московская область, Орехово-Зуевский городской округ, Дрезна, Юбилейная ул., 22",55.739757,38.84874,unknown,5,5,47.8,unknown,unknown,1975,Без ремонта,unknown,На улицу и двор,Кирпичный,Центральное,Нет,unknown,Вторичка,unknown,https://drezna.cian.ru/sale/flat/298578347/
3800000,"Московская область, Егорьевск, 2-й микрорайон, 46",55.366103,39.062584,unknown,5,5,44.0,32.0,6.0,1968,Косметический,unknown,На улицу,Панельный,Центральное,Нет,unknown,Вторичка,unknown,https://yegoryevsk.cian.ru/sale/flat/305591067/
3899555,"Московская область, Электросталь, мкр. Южный, Южный просп., 5к3",55.764688,38.439782,unknown,1,5,44.8,30.0,6.0,1969,Косметический,unknown,Во двор,Кирпичный,Центральное,Нет,unknown,Вторичка,unknown,https://elektrostal.cian.ru/sale/flat/305774296/
3900000,"Московская область, Истра городской округ, Глебовский поселок, ул. Микрорайон, 41",55.942343,36.714945,unknown,4,9,46.0,20.0,7.0,1981,Без ремонта,unknown,unknown,Панельный,Центральное,Нет,unknown,Вторичка,unknown,https://istra.cian.ru/sale/flat/306601566/
3990000,"Московская область, Сергиево-Посадский городской округ, Жучки деревня, 24",56.246091,37.941882,Ростокино,2,5,44.4,30.3,unknown,1981,Косметический,unknown,unknown,Панельный,Центральное,Нет,unknown,Вторичка,unknown,https://www.cian.ru/sale/flat/304924055/
4100000,"Московская область, Орехово-Зуевский городской округ, Куровское, ул. Вокзальная, 3",55.578538,38.922618,unknown,2,3,44.1,26.7,6.0,1962,Косметический,2.8,unknown,Кирпичный,Центральное,Нет,unknown,Вторичка,unknown,https://kurovskoe.cian.ru/sale/flat/281545455/
4215000,"Московская область, Раменский городской округ, Родники дп, ул. Заречная, 4А",55.645182,38.069694,Быково,4,4,38.3,24.0,11.0,2021,Евроремонт,unknown,Во двор,unknown,Нет информации,Нет,unknown,Вторичка,unknown,https://ramenskoye.cian.ru/sale/flat/300330409/
4200000,"Московская область, Серпухов, Весенняя ул., 56",54.931376,37.430543,unknown,6,9,42.7,29.7,5.6,1980,Без ремонта,2.7,На улицу,Кирпичный,Центральное,Нет,unknown,Вторичка,unknown,https://serpukhov.cian.ru/sale/flat/304548494/
4250000,"Московская область, Щелково городской округ, Загорянский дп, ул. Котовского, 17",55.913601,37.922443,Щёлковская,1,1,34.9,11.4,8.8,unknown,Косметический,2.5,Во двор,unknown,unknown,unknown,unknown,Вторичка,unknown,https://www.cian.ru/sale/flat/305957483/
4599999,"Московская область, Дмитров, Инженерная ул., 27",56.335131,37.535457,unknown,9,9,44.0,unknown,6.0,1978,Косметический,unknown,На улицу и двор,Кирпичный,Центральное,Нет,unknown,Вторичка,unknown,https://dmitrov.cian.ru/sale/flat/292966583/
4650000,"Московская область, Коломна, мкр. Центральный, ул. Ленина, 97",55.085899,38.770407,unknown,5,5,46.3,29.0,6.0,1964,Косметический,unknown,На улицу и двор,Панельный,Центральное,Нет,unknown,Вторичка,unknown,https://kolomna.cian.ru/sale/flat/304510405/
4800000,"Московская область, Химки городской округ, Брехово деревня, Митино Дальнее микрорайон, к18",55.933857,37.177083,Фирсановская,3,4,45.9,25.0,8.0,unknown,unknown,unknown,На улицу и двор,Монолитный,unknown,unknown,unknown,Вторичка,unknown,https://khimki.cian.ru/sale/flat/291370366/
4950000,"Московская область, Наро-Фоминск, ул. Шибанкова, 89",55.413525,36.715969,unknown,5,9,53.2,29.9,8.9,1993,Без ремонта,unknown,На улицу и двор,Панельный,Центральное,Нет,unknown,Вторичка,unknown,https://naro-fominsk.cian.ru/sale/flat/304427819/
4950000,"Московская область, Серебряные Пруды рп, Центральный микрорайон, 9",54.471132,38.716544,unknown,3,5,55.0,32.0,9.0,1988,Косметический,unknown,unknown,Панельный,Центральное,Нет,unknown,Вторичка,unknown,https://www.cian.ru/sale/flat/306732580/
5100000,"Московская область, Истра городской округ, Агрогородок поселок, 7",55.923286,36.958218,Нахабино,4,4,45.8,25.8,6.5,1977,Косметический,unknown,На улицу и двор,Панельный,Центральное,Нет,unknown,Вторичка,unknown,https://istra.cian.ru/sale/flat/301877261/
5200000,"Московская область, Раменское, р-н Западный, мкр. Холодово, Коммунистическая ул., 2",55.586858,38.211017,Фабричная,1,5,44.6,30.0,6.0,1966,Косметический,unknown,Во двор,Панельный,Центральное,Нет,unknown,Вторичка,unknown,https://ramenskoye.cian.ru/sale/flat/305753375/
5350000,"Московская область, Раменское, р-н Центральный, мкр. 2-й, ул. Свободы, 10",55.577867,38.232514,Раменское,3,9,43.9,27.7,6.0,1981,Без ремонта,2.6,Во двор,Панельный,Центральное,Нет,unknown,Вторичка,unknown,https://ramenskoye.cian.ru/sale/flat/306922173/
5500000,"Московская область, Солнечногорск, Вертлинская ул., 5А",56.196917,36.96553,unknown,2,5,48.0,29.2,6.0,1984,Косметический,2.6,Во двор,Кирпичный,Центральное,Нет,unknown,Вторичка,unknown,https://solnechnogorsk.cian.ru/sale/flat/301709360/
5500000,"Московская область, Лыткарино, 6-й микрорайон, 33",55.597114,37.876485,Томилино,12,18,55.0,27.0,19.0,2021,Без ремонта,2.8,На улицу и двор,unknown,Центральное,Нет,unknown,Вторичка,unknown,https://lytkarino.cian.ru/sale/flat/301738581/
5600000,"Московская область, Щелково, мкр. Богородский, 2",55.936918,37.97892,unknown,16,16,44.5,24.9,6.8,2016,Косметический,2.7,Во двор,Блочный,Центральное,Нет,unknown,Вторичка,unknown,https://shchyolkovo.cian.ru/sale/flat/302595173/
5600000,"Московская область, Раменское, р-н Центральный, Бронницкая ул., 31",55.561696,38.241758,Ипподром,5,5,42.0,unknown,6.0,1965,Косметический,unknown,Во двор,Кирпичный,Центральное,Нет,unknown,Вторичка,unknown,https://ramenskoye.cian.ru/sale/flat/290344115/
53900000,"Москва, САО, р-н Хорошевский, Ленинградский просп., 37/5",55.793875,37.541018,Аэропорт,27,41,70.0,50.0,10.0,2021,Без ремонта,unknown,unknown,unknown,Центральное,Нет,unknown,Вторичка,unknown,https://www.cian.ru/sale/flat/306050394/
85000000,"Москва, САО, р-н Беговой, ул. 1-я Ямского Поля, 1к1",55.779271,37.581676,Белорусская,10,15,80.0,50.0,16.0,2023,Без ремонта,unknown,На улицу,Монолитный,unknown,unknown,unknown,Вторичка / Апартаменты,unknown,https://www.cian.ru/sale/flat/305844676/
154578600,"Москва, ЦАО, р-н Таганский, Тессинский пер., 1",55.7508185529278,37.6492923558182,Китай,5,8,122.1,unknown,unknown,2023,"Без отделки, черновая",3.2,unknown,Монолитно-кирпичный,unknown,unknown,unknown,Новостройка,Стрелецкая Слобода,https://www.cian.ru/sale/flat/299319262/
3590000,"Московская область, Солнечногорск городской округ, Полежайки деревня, 4",56.071911,36.889272,Зеленоград,1,3,41.4,26.0,6.0,1974,Без ремонта,2.6,Во двор,Кирпичный,Центральное,Нет,unknown,Вторичка,unknown,https://solnechnogorsk.cian.ru/sale/flat/292605321/
4100000,"Московская область, Дмитровский городской округ, Икша рп, ул. Инженерная, 9",56.166576,37.499534,unknown,1,5,41.2,27.0,6.0,1978,Косметический,unknown,На улицу и двор,unknown,Нет информации,Нет,unknown,Вторичка,unknown,https://dmitrov.cian.ru/sale/flat/306329444/
5200000,"Московская область, Солнечногорск, Красноармейская ул., 10",56.182782,36.995229,unknown,3,5,39.6,25.0,6.0,1975,Косметический,2.5,На улицу,Кирпичный,Центральное,Нет,unknown,Вторичка,unknown,https://solnechnogorsk.cian.ru/sale/flat/303059675/
5350000,"Московская область, Люберцы, ул. Строителей, 4а",55.663283,37.906282,Котельники,5,5,44.5,30.6,6.0,1966,Косметический,2.5,Во двор,Панельный,Центральное,Нет,unknown,Вторичка,unknown,https://lyubertsy.cian.ru/sale/flat/306112030/
5350000,"Московская область, Солнечногорск, Набережная ул., 15",56.189319,36.970767,unknown,3,5,44.3,32.0,6.0,1979,Косметический,2.6,Во двор,Панельный,Центральное,Нет,unknown,Вторичка,unknown,https://solnechnogorsk.cian.ru/sale/flat/296279143/
5600000,"Московская область, Жуковский, мкр. Рынок, ул. Чкалова, 10А",55.591004,38.132127,Отдых,5,5,46.6,29.0,6.0,1963,Без ремонта,unknown,Во двор,unknown,Центральное,Нет,unknown,Вторичка,unknown,https://zhukovsky.cian.ru/sale/flat/306477845/
5500000,"Московская область, Жуковский, мкр. 7А, ул. Дзержинского, 10/9",55.598222,38.133565,Отдых,2,5,44.0,32.0,6.0,1968,Косметический,unknown,На улицу и двор,unknown,Нет информации,Нет,unknown,Вторичка,unknown,https://zhukovsky.cian.ru/sale/flat/306607223/
6200000,"Московская область, Люберцы, мкр. Красная горка, Инициативная ул., 73",55.685061,37.913594,Люберцы,4,5,42.3,27.0,6.0,1970,Косметический,2.6,Во двор,Кирпичный,Центральное,Нет,unknown,Вторичка,unknown,https://lyubertsy.cian.ru/sale/flat/305496445/
6950000,"Московская область, Балашиха, мкр. Саввино, ул. Безымянная, 8",55.741515,38.03784,Новокосино,1,17,43.6,unknown,18.5,2021,Евроремонт,unknown,unknown,Блочный,Центральное,Нет,unknown,Вторичка,unknown,https://balashikha.cian.ru/sale/flat/306699086/
7000000,"Московская область, Балашиха, ул. Яганова, 11",55.833931,37.957037,Щёлковская,18,25,56.1,unknown,11.0,2020,Без ремонта,2.7,На улицу,Монолитный,Автономная котельная,Нет,unknown,Вторичка,unknown,https://balashikha.cian.ru/sale/flat/306022329/
7490000,"Московская область, Солнечногорск, Красная ул., 56",56.183353,36.98612,Зеленоград,5,17,48.0,13.0,20.0,2023,Косметический,2.8,Во двор,unknown,Нет информации,Нет,unknown,Вторичка,unknown,https://solnechnogorsk.cian.ru/sale/flat/294083659/
8300000,"Московская область, Балашиха, мкр. 22-й, ул. Майкла Лунна, 4",55.834093,37.97485,Щёлковская,1,17,59.5,28.9,7.4,2007,Евроремонт,2.5,Во двор,Панельный,Центральное,Нет,unknown,Вторичка,unknown,https://balashikha.cian.ru/sale/flat/306398690/
8500000,"Московская область, Балашиха, мкр. Авиаторов, ул. Летная, 8/7",55.824076,37.946329,Щёлковская,9,21,55.5,30.3,10.0,2012,Евроремонт,2.7,unknown,Панельный,Центральное,Нет,unknown,Вторичка,unknown,https://balashikha.cian.ru/sale/flat/306466633/
8600000,"Московская область, Богородский городской округ, Старая Купавна, 70 лет Победы жилой комплекс, 2",55.816455,38.181481,Железнодорожная,3,3,56.9,unknown,20.0,unknown,Евроремонт,unknown,На улицу,unknown,unknown,unknown,unknown,Вторичка,unknown,https://staraya-kupavna.cian.ru/sale/flat/304899143/
8800000,"Московская область, Ленинский городской округ, Развилка поселок, проезд Римский, 13",55.5978087709235,37.7695166100856,Зябликово,14,15,50.9,25.5,10.4,2024,Без отделки,unknown,unknown,unknown,unknown,unknown,unknown,Новостройка,unknown,https://vidnoye.cian.ru/sale/flat/306027777/
8900000,"Московская область, Котельники, Белая Дача микрорайон, 25к1",55.663087,37.853391,Котельники,19,26,40.0,12.0,19.0,2022,Евроремонт,unknown,Во двор,Панельный,Центральное,Нет,unknown,Вторичка,unknown,https://kotelniki.cian.ru/sale/flat/305729778/
8900000,"Московская область, Котельники, Парковый микрорайон, 1к21",55.657321,37.876179,Котельники,22,25,53.8,28.7,11.7,2021,unknown,unknown,На улицу,Панельный,Центральное,Нет,unknown,Вторичка,unknown,https://kotelniki.cian.ru/sale/flat/304857620/
9700000,"Московская область, Богородский городской округ, Ногинск, ул. Декабристов, 3Г",55.862171,38.43618,unknown,10,10,69.1,39.0,12.0,2009,Евроремонт,2.8,На улицу и двор,Кирпичный,Центральное,Нет,unknown,Вторичка,unknown,https://noginsk.cian.ru/sale/flat/300329368/
9678000,"Московская область, Балашиха, мкр. 28-й, ул. Разина, 1А",55.79262,37.93218,Салтыковская,20,24,59.5,unknown,12.3,2022,Без ремонта,2.7,На улицу,Панельный,Центральное,Нет,unknown,Вторичка,unknown,https://balashikha.cian.ru/sale/flat/296593320/
9800000,"Московская область, Люберцы, мкр. Люберцы 2015 2018, Зенино ЖК Самолет микрорайон, ул. Барыкина, 3",55.708202,37.954315,Некрасовка,17,18,57.0,30.0,13.2,2019,Евроремонт,2.76,На улицу и двор,Монолитный,Центральное,Нет,unknown,Вторичка,unknown,https://lyubertsy.cian.ru/sale/flat/305286383/
10200000,"Москва, ВАО, р-н Перово, ул. Металлургов, 2",55.756356,37.777931,Перово,4,9,37.0,22.6,7.5,1966,Косметический,2.5,Во двор,Блочный,Центральное,Нет,unknown,Вторичка,unknown,https://www.cian.ru/sale/flat/299115293/
10500000,"Москва, СВАО, р-н Ярославский, Холмогорская ул., 2К1",55.880844,37.718624,Медведково,3,9,44.4,unknown,6.1,1979,Без ремонта,2.64,unknown,Панельный,Центральное,Нет,unknown,Вторичка,unknown,https://www.cian.ru/sale/flat/303328898/
7350000,"Московская область, Мытищи, мкр. 18, Новомытищинский просп., 10к1",55.916451,37.745286,Медведково,1,5,39.7,27.0,6.0,1970,Косметический,2.7,На улицу,Кирпичный,Центральное,Нет,unknown,Вторичка,unknown,https://mytishchi.cian.ru/sale/flat/306412453/
31127000,"Москва, СВАО, р-н Ростокино, Союз жилой комплекс, к6",55.8391699508448,37.642219842633,Ботанический сад,2,23,61.0,26.4,17.2,2026,Без отделки,3.02,На улицу,Монолитно-кирпичный,unknown,unknown,unknown,Новостройка,Группа Родина,https://www.cian.ru/sale/flat/305467910/
11800000,"Московская область, Ленинский городской округ, Развилка поселок, проезд Римский, 5",55.596869,37.767393,Домодедовская,4,14,53.0,unknown,9.0,2020,Евроремонт,2.8,На улицу,unknown,Нет информации,Нет,unknown,Вторичка,unknown,https://vidnoye.cian.ru/sale/flat/302233308/
10500000,"Москва, ВАО, р-н Перово, Новогиреевская ул., 16К3",55.760413,37.791253,Перово,5,5,44.0,29.5,6.1,1963,Косметический,2.7,Во двор,Кирпичный,Центральное,Нет,unknown,Вторичка,unknown,https://www.cian.ru/sale/flat/304962920/
33035590,"Москва, ЦАО, р-н Пресненский, Шмитовский проезд, 39к5",55.7541485585723,37.5260334013412,Шелепиха,32,41,66.47,39.2,22.3,2024,Без отделки,3.1,unknown,Монолитно-кирпичный,unknown,unknown,unknown,Новостройка,Класс,https://www.cian.ru/sale/flat/304746713/
14980000,"Москва, НАО (Новомосковский), Внуковское поселение, бул. Андрея Тарковского, 6",55.627265,37.342427,Рассказовка,9,10,44.0,18.3,16.4,2017,Дизайнерский,3.2,Во двор,Монолитный,Центральное,Нет,unknown,Вторичка,unknown,https://www.cian.ru/sale/flat/302829491/
451013659,"Москва, ЦАО, р-н Пресненский, Большая Никитская ул., 9",55.756153,37.60664,Александровский сад,2,5,107.7,65.5,15.5,2024,Дизайнерский,3.0,На улицу и двор,Монолитный,unknown,unknown,unknown,Вторичка,unknown,https://www.cian.ru/sale/flat/304582590/
22599000,"Москва, ЮВАО, р-н Лефортово, Символ жилой комплекс",55.7535471430711,37.6905434933892,Римская,2,21,55.8,23.2,13.9,2027,"Без отделки, чистовая, чистовая с мебелью",3.1,Во двор,Монолитный,unknown,unknown,unknown,Новостройка,ДОНСТРОЙ,https://www.cian.ru/sale/flat/306642832/
111110000,"Москва, ЦАО, р-н Замоскворечье, Садовническая наб., 7",55.746547,37.628038,Новокузнецкая,5,6,94.0,unknown,unknown,2018,Дизайнерский,3.35,unknown,Монолитный,Нет информации,Нет,unknown,Вторичка / Апартаменты,unknown,https://www.cian.ru/sale/flat/306837240/
12000000,"Москва, ЮАО, р-н Чертаново Южное, 3-й Дорожный проезд, 4К1",55.601895,37.609263,Улица Академика,2,12,45.6,29.2,7.0,1972,Косметический,unknown,Во двор,Панельный,Центральное,Нет,unknown,Вторичка,unknown,https://www.cian.ru/sale/flat/306844809/
28015956,"Москва, САО, р-н Аэропорт, Часовая ул., 28к8",55.81202757989051,37.521682566306986,Сокол,4,29,64.8,25.6,21.2,2026,Неизвестно,3.0,unknown,Монолитный,unknown,unknown,unknown,Новостройка,FORMA,https://www.cian.ru/sale/flat/306957838/
26100000,"Москва, ЮАО, р-н Даниловский, Шагал жилой комплекс, 2-я очередь, к4.1",55.686655,37.642581,ЗИЛ,8,27,72.8,25.0,27.1,2025,Без отделки,unknown,На улицу и двор,Монолитный,unknown,unknown,unknown,Новостройка,unknown,https://www.cian.ru/sale/flat/305964433/
11000000,"Москва, НАО (Новомосковский), Московский, Град Московский микрорайон, проезд Радужный",55.594225,37.365378,Рассказовка,10,25,44.8,20.0,16.0,unknown,Евроремонт,unknown,На улицу,Панельный,unknown,unknown,unknown,Вторичка,unknown,https://www.cian.ru/sale/flat/306602976/
18854317,"Москва, СЗАО, р-н Покровское-Стрешнево, Ситизен жилой комплекс",55.8297697152095,37.4369206701951,Тушинская,3,19,53.8,28.6,unknown,2027,Предчистовая,2.85,Во двор,Монолитно-кирпичный,unknown,unknown,unknown,Новостройка,MR Group,https://www.cian.ru/sale/flat/298871304/
114000000,"Москва, ЦАО, р-н Якиманка, Софийская наб., 34",55.747287,37.622783,Новокузнецкая,2,8,77.2,unknown,unknown,2019,Дизайнерский,unknown,unknown,unknown,unknown,unknown,unknown,Вторичка / Апартаменты,unknown,https://www.cian.ru/sale/flat/302534155/
8450000,"Московская область, Ленинский городской округ, Мисайлово деревня, ул. Имени Л.И. Гоман, 10",55.554562,37.803461,Домодедовская,3,17,53.4,unknown,22.2,2023,unknown,2.77,unknown,unknown,Нет информации,Нет,unknown,Вторичка,unknown,https://vidnoye.cian.ru/sale/flat/306324649/
36673000,"Москва, ЦАО, р-н Красносельский, просп. Академика Сахарова, 7",55.771125,37.643722,Красные ворота,3,19,43.4,27.2,8.6,2024,Чистовая,3.2,unknown,Монолитно-кирпичный,unknown,unknown,unknown,Новостройка / Апартаменты,ГК Основа,https://www.cian.ru/sale/flat/290856483/
176000000,"Москва, ЦАО, р-н Хамовники, 1-й Зачатьевский пер., 5",55.739017,37.60381,Парк Культуры,3,8,109.9,unknown,15.0,2005,Дизайнерский,3.2,На улицу и двор,Монолитно-кирпичный,Индивидуальный тепловой пункт,Нет,unknown,Вторичка,unknown,https://www.cian.ru/sale/flat/305508566/
28900000,"Москва, ЦАО, р-н Пресненский, ул. Юлиуса Фучика, 2/30",55.769388,37.586715,Маяковская,2,5,48.0,unknown,8.0,1958,Дизайнерский,2.8,unknown,Кирпичный,Центральное,Нет,unknown,Вторичка,unknown,https://www.cian.ru/sale/flat/302073637/
21004155,"Москва, ЮВАО, р-н Южнопортовый, Волгоградский просп., 32/3к4",55.7199889484314,37.6885570978689,Волгоградский проспект,9,29,55.8,unknown,unknown,2025,Предчистовая,2.87,Во двор,"Монолитно-кирпичный, монолитный",unknown,unknown,unknown,Новостройка,MR Group,https://www.cian.ru/sale/flat/305596767/
62000000,"Москва, ЦАО, р-н Пресненский, Краснопресненская наб., 14Ак3",55.75204,37.548465,Москва,48,67,52.0,16.9,22.3,2023,Евроремонт,3.1,На улицу,Панельный,Нет информации,Нет,unknown,Вторичка,unknown,https://www.cian.ru/sale/flat/305500566/
39900000,"Москва, ЦАО, р-н Тверской, Благовещенский пер., 5",55.767914,37.598546,Маяковская,4,8,65.0,42.0,12.0,1902,Евроремонт,3.0,Во двор,Кирпичный,Центральное,Нет,unknown,Вторичка,unknown,https://www.cian.ru/sale/flat/296565916/
29960000,"Москва, СВАО, р-н Марфино, ул. Академика Королева, 21",55.8205830303055,37.6022541586287,Бутырская,2,26,61.53,25.0,18.5,2024,Без отделки,3.15,На улицу и двор,Монолитный,unknown,unknown,unknown,Новостройка,Sminex,https://www.cian.ru/sale/flat/306156482/
24100000,"Москва, ЮАО, р-н Даниловский, Шагал жилой комплекс, 1-я очередь, к13",55.686655,37.642581,ЗИЛ,8,27,60.0,21.2,20.0,2025,Без отделки,unknown,На улицу и двор,Монолитный,unknown,unknown,unknown,Новостройка,unknown,https://www.cian.ru/sale/flat/305964471/
14323586,"Москва, СЗАО, р-н Хорошево-Мневники, Левел Звенигородская жилой комплекс",55.7689980396561,37.501083652778,Хорошёво,2,64,34.9,21.4,5.0,2028,"Без отделки, предчистовая, чистовая",2.7,На улицу,Монолитный,unknown,unknown,unknown,Новостройка,Level Group,https://www.cian.ru/sale/flat/306793008/
25107300,"Москва, ЦАО, р-н Пресненский, Шелепихинское ш.",55.7549286333382,37.5257209193258,Шелепиха,18,51,45.9,16.4,unknown,2024,Без отделки,3.1,На улицу,Монолитно-кирпичный,unknown,unknown,unknown,Новостройка,КОРТРОС,https://www.cian.ru/sale/flat/306796067/
79000000,"Москва, ЦАО, р-н Тверской, ул. Палиха, 4",55.783752,37.598582,Менделеевская,2,10,69.4,unknown,unknown,2019,Дизайнерский,4.35,Во двор,Монолитный,Нет информации,Нет,unknown,Вторичка / Апартаменты,unknown,https://www.cian.ru/sale/flat/302081797/
18500000,"Москва, ЗАО, р-н Тропарево-Никулино, ул. 26 Бакинских Комиссаров, 8к3",55.66013,37.491413,Юго,8,9,44.8,unknown,6.5,1970,Дизайнерский,2.64,unknown,Панельный,Центральное,Нет,unknown,Вторичка,unknown,https://www.cian.ru/sale/flat/306771748/
23676000,"Москва, СВАО, р-н Марьина роща, Тэйт жилой комплекс",55.8025300783107,37.62094537252544,Марьина Роща,5,49,59.19,24.2,unknown,2027,Предчистовая,3.12,unknown,Монолитно-кирпичный,unknown,unknown,unknown,Новостройка,КОРТРОС,https://www.cian.ru/sale/flat/296640150/
59900000,"Москва, 1-я Тверская-Ямская ул., 7",55.771494,37.592797,Маяковская,8,9,71.3,46.0,7.0,1977,Дизайнерский,3.0,На улицу и двор,Кирпичный,Центральное,Нет,unknown,Вторичка,unknown,https://www.cian.ru/sale/flat/302543412/
35990000,"Москва, ЦАО, р-н Басманный, Чистопрудный бул., 12К2",55.760874,37.643498,Чистые пруды,2,8,63.0,40.0,13.0,1931,Евроремонт,3.0,На улицу и двор,unknown,Центральное,Нет,unknown,Вторичка,unknown,https://www.cian.ru/sale/flat/300539730/
21804000,"Москва, АйЛав жилой комплекс",55.809582,37.624002,Алексеевская,16,26,47.4,35.6,unknown,2024,Без отделки,3.0,unknown,Монолитный,unknown,unknown,unknown,Новостройка,unknown,https://www.cian.ru/sale/flat/306567973/
50950000,"Москва, САО, р-н Хорошевский, Ленинградский просп., 37/4",55.793313,37.540533,Динамо,5,41,68.0,48.0,6.0,2021,Дизайнерский,3.1,Во двор,Монолитный,Центральное,Нет,unknown,Вторичка,unknown,https://www.cian.ru/sale/flat/302885559/
11190000,"Москва, ВАО, р-н Новогиреево, Мартеновская ул., 16/36",55.753002,37.802598,Новогиреево,4,5,42.8,28.8,5.4,1963,Евроремонт,2.65,Во двор,Кирпичный,Центральное,Нет,unknown,Вторичка,unknown,https://www.cian.ru/sale/flat/306822688/
15123041,"Москва, СЗАО, р-н Покровское-Стрешнево, Волоколамское ш., 95/1к11",55.83022,37.40469,Трикотажная,2,27,39.52,21.4,unknown,2027,Предчистовая,2.85,Во двор,Монолитно-кирпичный,unknown,unknown,unknown,Новостройка,MR Group,https://www.cian.ru/sale/flat/306514766/
34000000,"Москва, ЦАО, р-н Басманный, наб. Академика Туполева, 15",55.760692,37.68217,Бауманская,19,23,71.7,44.7,10.5,2008,Косметический,3.0,На улицу и двор,Кирпичный,Центральное,Нет,unknown,Вторичка,unknown,https://www.cian.ru/sale/flat/305913436/
17000000,"Москва, НАО (Новомосковский), Сосенки деревня, ул. Ясеневая, 1к1",55.567224,37.443173,Ольховая,6,9,60.0,25.0,25.0,2013,Евроремонт,3.1,На улицу,Монолитный,Индивидуальный тепловой пункт,Нет,unknown,Вторичка,unknown,https://www.cian.ru/sale/flat/303783084/
6153638,"Московская область, Одинцовский городской округ, Перхушково село, Равновесие микрорайон, 5",55.653294,37.12481,Толстопальцево,2,6,36.2,21.1,unknown,2024,"Без отделки, предчистовая, черновая, чистовая",2.7,unknown,Монолитно-кирпичный,unknown,unknown,unknown,Новостройка,КОРТРОС,https://odintsovo.cian.ru/sale/flat/293544818/
51000000,"Москва, САО, р-н Хорошевский, Ленинградский просп., 37/4",55.793313,37.540533,ЦСКА,5,41,68.0,45.0,10.0,2021,Дизайнерский,3.1,Во двор,Монолитный,Центральное,Нет,unknown,Вторичка,unknown,https://www.cian.ru/sale/flat/303331501/
14500000,"Москва, ЮАО, р-н Царицыно, ул. Бехтерева, 11К1",55.633917,37.649759,Кантемировская,8,9,40.0,unknown,8.0,1965,Дизайнерский,2.64,Во двор,Блочный,Центральное,Нет,unknown,Вторичка,unknown,https://www.cian.ru/sale/flat/306499102/
173610717,"Москва, ЦАО, р-н Пресненский, ул. Костикова, 4к4",55.7611692715608,37.5552059239422,Улица 1905 года,9,15,126.3,unknown,unknown,2023,"Чистовая, чистовая с мебелью",3.0,unknown,Монолитный,unknown,unknown,unknown,Новостройка,VESPER,https://www.cian.ru/sale/flat/306541587/
45500000,"Москва, САО, р-н Беговой, Ленинградский просп., 29к3",55.784217,37.561688,Петровский Парк,4,18,68.5,unknown,15.0,2018,Дизайнерский,unknown,unknown,unknown,Центральное,Нет,unknown,Вторичка / Апартаменты,unknown,https://www.cian.ru/sale/flat/306652678/
5550000,"Московская область, Солнечногорск городской округ, Голубое деревня, проезд Сургутский, 1к2",55.974191,37.101364,Зеленоград,9,25,49.5,21.8,12.0,2019,Евроремонт,2.7,Во двор,Панельный,Центральное,Нет,unknown,Вторичка,unknown,https://solnechnogorsk.cian.ru/sale/flat/306243465/
143796000,"Москва, ЦАО, р-н Тверской, 1-я Тверская-Ямская ул., 2",55.7710883704405,37.5948676266339,Маяковская,5,9,104.2,unknown,28.0,2023,"Без отделки, чистовая с мебелью",unknown,На улицу,Монолитный,unknown,unknown,unknown,Новостройка / Апартаменты,VESPER,https://www.cian.ru/sale/flat/286258299/
22900000,"Москва, ЗАО, р-н Раменки, просп. Генерала Дорохова, вл1к3",55.7099667786522,37.493476306313,Минская,19,52,51.2,30.0,10.0,2024,Без отделки,unknown,На улицу,Монолитный,unknown,unknown,unknown,Новостройка,unknown,https://www.cian.ru/sale/flat/285334506/
13300000,"Москва, ЮАО, р-н Царицыно, Каспийская ул., 10",55.630024,37.680966,Царицыно,11,12,40.0,unknown,7.0,1971,Дизайнерский,2.64,Во двор,Блочный,Центральное,Нет,unknown,Вторичка,unknown,https://www.cian.ru/sale/flat/305844386/
47536060,"Москва, САО, р-н Беговой, Ленинградский просп., вл8",55.78085421861,37.5826308664078,Белорусская,23,36,65.0,unknown,unknown,2027,Без отделки,3.08,На улицу и двор,Монолитный,unknown,unknown,unknown,Новостройка,MR Group,https://www.cian.ru/sale/flat/307023617/
50950000,"Москва, САО, р-н Хорошевский, Ленинградский просп., 37/4",55.793313,37.540533,ЦСКА,5,40,65.6,45.0,10.0,2021,Дизайнерский,unknown,Во двор,Монолитный,Центральное,Нет,unknown,Вторичка,unknown,https://www.cian.ru/sale/flat/306618960/
16500000,"Москва, САО, р-н Войковский, ул. Зои и Александра Космодемьянских, 11",55.82177,37.512793,Войковская,4,9,45.0,unknown,7.0,1976,Дизайнерский,2.64,Во двор,Панельный,Центральное,Нет,unknown,Вторичка,unknown,https://www.cian.ru/sale/flat/306804085/
131612800,"Москва, ЦАО, р-н Замоскворечье, Космодамианская наб., 4/22С8",55.7454796264396,37.6389599252698,Новокузнецкая,2,6,74.78,unknown,unknown,2024,Без отделки,3.23,unknown,Монолитно-кирпичный,unknown,unknown,unknown,Новостройка / Апартаменты,Галс-Девелопмент,https://www.cian.ru/sale/flat/306862266/
35000000,"Москва, ЗАО, р-н Раменки, 1-й Сетуньский проезд, вл6",55.73222,37.540209,Кутузовская,12,41,54.0,30.0,10.0,2024,Чистовая,unknown,На улицу,Монолитный,unknown,unknown,unknown,Новостройка,unknown,https://www.cian.ru/sale/flat/301954491/
36500000,"Москва, ЗАО, р-н Можайский, ул. Багрицкого, 18",55.718907,37.43499,Кунцевская,4,16,71.0,unknown,25.0,2020,Дизайнерский,unknown,На улицу,Монолитный,Нет информации,Нет,unknown,Вторичка,unknown,https://www.cian.ru/sale/flat/306154714/
38000000,"Москва, СВАО, р-н Марьина роща, проезд 12-й Марьиной рощи, 8С3",55.805012,37.619863,Марьина Роща,4,4,80.0,74.0,unknown,2020,Дизайнерский,unknown,На улицу и двор,Монолитный,Нет информации,Нет,unknown,Вторичка / Апартаменты,unknown,https://www.cian.ru/sale/flat/302644494/
39000000,"Москва, ЗАО, р-н Дорогомилово, Большая Дорогомиловская ул., 5",55.745904,37.55991,Киевская,6,7,60.0,44.0,8.0,1939,Дизайнерский,unknown,Во двор,unknown,Центральное,Нет,unknown,Вторичка,unknown,https://www.cian.ru/sale/flat/302783912/
33031752,"Москва, ЮАО, р-н Даниловский, Подольское ш., 3",55.713248,37.62448,Тульская,9,13,63.7,51.5,7.2,2024,Предчистовая,3.0,unknown,Монолитный,unknown,unknown,unknown,Новостройка / Апартаменты,Sense Development,https://www.cian.ru/sale/flat/300501958/
40000000,"Москва, ЦАО, р-н Хамовники, ул. Хамовнический Вал, 4",55.716752,37.57678,Спортивная,2,8,57.0,37.0,12.0,1957,Дизайнерский,unknown,Во двор,Кирпичный,Центральное,Нет,unknown,Вторичка,unknown,https://www.cian.ru/sale/flat/303464784/
42500000,"Москва, СЗАО, р-н Хорошево-Мневники, Причальный проезд, 10А",55.760646,37.516036,Шелепиха,6,33,65.2,37.0,10.0,unknown,Дизайнерский,unknown,На улицу и двор,Монолитный,unknown,unknown,unknown,Вторичка,unknown,https://www.cian.ru/sale/flat/306601191/
42500000,"Москва, СЗАО, р-н Хорошево-Мневники, Причальный проезд, 10к1",55.759785,37.516727,Шелепиха,18,33,65.2,37.0,10.0,2023,Дизайнерский,2.9,На улицу,unknown,Нет информации,Нет,unknown,Вторичка,unknown,https://www.cian.ru/sale/flat/303774064/
43000000,"Москва, ЗАО, р-н Раменки, ул. Василия Ланового, 1к2",55.696164,37.476788,Аминьевская,19,41,75.0,50.0,unknown,2022,Дизайнерский,unknown,На улицу,unknown,Нет информации,Нет,unknown,Вторичка,unknown,https://www.cian.ru/sale/flat/301498692/
44000000,"Москва, ЗАО, р-н Раменки, Воробьевское ш., 4",55.727693,37.535359,Поклонная,9,13,46.4,35.2,5.0,2017,Дизайнерский,unknown,Во двор,Монолитный,Индивидуальный тепловой пункт,Нет,unknown,Вторичка / Апартаменты,unknown,https://www.cian.ru/sale/flat/305978749/
45500000,"Москва, ЮАО, р-н Даниловский, Дубининская ул., 59А",55.718721,37.637245,Павелецкая,15,46,66.1,38.0,15.0,2023,Дизайнерский,3.0,На улицу и двор,unknown,Нет информации,Нет,unknown,Вторичка,unknown,https://www.cian.ru/sale/flat/301561992/
49000000,"Москва, ЦАО, р-н Пресненский, Ходынская ул., 2",55.770806,37.564212,Улица 1905 года,27,44,68.5,36.0,10.0,2018,Дизайнерский,unknown,На улицу,Монолитный,Индивидуальный тепловой пункт,Нет,unknown,Вторичка,unknown,https://www.cian.ru/sale/flat/305275244/
50000000,"Москва, ЦАО, р-н Тверской, 2-я Брестская ул., 6",55.770811,37.591189,Маяковская,7,12,67.0,35.0,20.0,unknown,Дизайнерский,3.2,На улицу,unknown,unknown,unknown,unknown,Вторичка / Апартаменты,unknown,https://www.cian.ru/sale/flat/306572054/
57000000,"Москва, ЦАО, р-н Пресненский, Мантулинская ул., 9к4",55.755186,37.543434,Деловой центр,9,21,66.0,35.0,15.0,2019,unknown,unknown,На улицу и двор,Монолитный,Центральное,Нет,unknown,Вторичка,unknown,https://www.cian.ru/sale/flat/305743870/
57475000,"Москва, ЦАО, р-н Пресненский, Большой Предтеченский пер., 22",55.760282,37.566521,Улица 1905 года,2,6,60.5,unknown,10.0,1897,Дизайнерский,3.0,На улицу,Кирпичный,Нет информации,Нет,unknown,Вторичка,unknown,https://www.cian.ru/sale/flat/303677788/
62750000,"Москва, ЦАО, р-н Тверской, ул. Александра Невского, 27",55.776669,37.588817,Белорусская,8,18,84.0,55.0,18.0,2006,Дизайнерский,3.0,На улицу и двор,Кирпичный,Индивидуальный тепловой пункт,Нет,unknown,Вторичка,unknown,https://www.cian.ru/sale/flat/303589233/
72000000,"Москва, ЗАО, р-н Дорогомилово, ул. Братьев Фонченко, вл3",55.732306,37.51653,Парк Победы,4,11,67.4,unknown,unknown,2024,Чистовая,unknown,unknown,Монолитный,unknown,unknown,unknown,Новостройка,unknown,https://www.cian.ru/sale/flat/305910950/
72000000,"Москва, ЗАО, р-н Дорогомилово, Виктори Парк Резиденсез жилой комплекс, 3к3",55.732306,37.51653,Парк Победы,4,10,67.31,41.7,10.0,2024,Чистовая,3.2,На улицу и двор,Монолитный,unknown,unknown,unknown,Новостройка,unknown,https://www.cian.ru/sale/flat/305323887/
85000000,"Москва, ЦАО, р-н Хамовники, Зубовская ул., 7",55.736934,37.583365,Парк Культуры,4,6,75.1,unknown,15.0,2023,Дизайнерский,3.0,unknown,Кирпичный,unknown,unknown,unknown,Вторичка / Апартаменты,unknown,https://www.cian.ru/sale/flat/303570935/
86229600,"Москва, ЦАО, р-н Хамовники, Комсомольский просп., 42С2",55.721731,37.572899,Спортивная,4,7,65.0,unknown,10.0,2013,Дизайнерский,2.9,На улицу и двор,Монолитный,Нет информации,Нет,unknown,Вторичка / Апартаменты,unknown,https://www.cian.ru/sale/flat/305062277/
94500000,"Москва, ЦАО, р-н Пресненский, Средний Тишинский пер., 5",55.769965,37.577256,Белорусская,16,20,90.0,unknown,18.0,2021,Без ремонта,3.23,unknown,unknown,Нет информации,Нет,unknown,Вторичка,unknown,https://www.cian.ru/sale/flat/304171712/
119000000,"Москва, ЦАО, р-н Якиманка, ул. Большая Якиманка, 22К3",55.738252,37.61344,Полянка,6,16,100.7,75.7,20.0,2006,unknown,unknown,Во двор,Кирпичный,Индивидуальный тепловой пункт,Нет,unknown,Вторичка,unknown,https://www.cian.ru/sale/flat/302593324/
3400000,"Московская область, Раменский городской округ, Раменской агрохимстанции (РАОС) поселок, 11",55.520044,38.090805,unknown,1,4,44.8,unknown,unknown,1966,Косметический,2.64,Во двор,Панельный,Центральное,Нет,unknown,Вторичка,unknown,https://ramenskoye.cian.ru/sale/flat/303252535/
4700000,"Московская область, Дмитровский городской округ, Икша рп, ул. Школьная, 11",56.174234,37.500971,unknown,1,5,45.0,unknown,6.0,1968,Косметический,unknown,Во двор,Панельный,Нет информации,Нет,unknown,Вторичка,unknown,https://dmitrov.cian.ru/sale/flat/301420537/
6200000,"Московская область, Наро-Фоминск, ул. Маршала Жукова, 169",55.378713,36.701767,unknown,3,5,43.8,29.0,6.0,1968,Косметический,unknown,На улицу и двор,Панельный,Центральное,Нет,unknown,Вторичка,unknown,https://naro-fominsk.cian.ru/sale/flat/306994936/
29288296,"Москва, САО, р-н Савеловский, 2-я Хуторская ул., 34",55.8061573028355,37.5718057748288,Дмитровская,40,43,58.79,24.3,unknown,2025,"Предчистовая, чистовая",3.0,unknown,Монолитный,unknown,unknown,unknown,Новостройка,MR Group,https://www.cian.ru/sale/flat/300287943/
245300000,"Москва, ЦАО, р-н Пресненский, наб. Пресненская, 8с1",55.747115,37.539078,Деловой центр,68,73,223.0,2.0,80.0,2010,Дизайнерский,unknown,unknown,Монолитный,Нет информации,Нет,unknown,Вторичка / Апартаменты,unknown,https://www.cian.ru/sale/flat/306072341/
58391866,"Москва, ЗАО, р-н Дорогомилово, Кутузовский проезд, 16А/1",55.74576565404973,37.52125620414366,Фили,18,46,64.5,41.5,5.7,2026,"Без отделки, предчистовая, черновая, чистовая",3.115,На улицу,Монолитно-кирпичный,unknown,unknown,unknown,Новостройка,Аеон Девелопмент,https://www.cian.ru/sale/flat/301173776/
9500000,"Московская область, Одинцовский городской округ, Новоивановское рп, бул. Эйнштейна, 3",55.701333,37.361705,Сколково,14,24,52.0,unknown,11.0,2021,Без ремонта,2.8,На улицу и двор,Монолитный,Центральное,Нет,unknown,Вторичка,unknown,https://odintsovo.cian.ru/sale/flat/305054588/
39253929,"Москва, ЮАО, р-н Нагатинский затон, просп. Андропова, 9/1",55.6914591867037,37.66755095833505,Технопарк,19,23,73.6,33.6,unknown,2023,Без отделки,3.15,unknown,Монолитный,unknown,unknown,unknown,Новостройка,Regions Development,https://www.cian.ru/sale/flat/304060942/
55656716,"Москва, ЦАО, р-н Пресненский, Московский международный деловой центр Москва-Сити территория, Дом Дау многофункциональный жилой комплекс",55.752453488652414,37.54337320151535,unknown,12,85,73.69,unknown,unknown,2027,Черновая,unknown,unknown,Монолитный,unknown,unknown,unknown,Новостройка,ГК Сумма Элементов,https://www.cian.ru/sale/flat/304775163/
10850000,"Московская область, Мытищи, ул. Красная Слобода, 13",55.962659,37.67555,Медведково,3,7,60.0,30.0,23.0,2018,Дизайнерский,2.65,На улицу и двор,Монолитный,Центральное,Нет,unknown,Вторичка,unknown,https://mytishchi.cian.ru/sale/flat/306448825/
12675000,"Москва, НАО (Новомосковский), № 123 квартал",55.5900578155798,37.4832580770049,Корниловская откроется,6,17,49.5,27.4,17.1,2026,Без отделки,3.1,На улицу,Монолитно-кирпичный,unknown,unknown,unknown,Новостройка,3SGroup,https://www.cian.ru/sale/flat/304854270/
20400000,"Москва, ЦАО, р-н Пресненский, Шелепихинское ш., 17К3",55.758564,37.518928,Шелепиха,12,12,38.7,23.7,6.1,1971,Евроремонт,2.5,На улицу и двор,Блочный,Центральное,Нет,unknown,Вторичка,unknown,https://www.cian.ru/sale/flat/305664550/
35407074,"Москва, СЗАО, р-н Хорошево-Мневники, проезд Проектируемый № 1074",55.7490842942989,37.4530314296612,Молодёжная,17,18,70.5,27.9,22.1,2025,"Без отделки, чистовая с мебелью",3.0,На улицу и двор,"Монолитно-кирпичный, монолитный",unknown,unknown,unknown,Новостройка,ДОНСТРОЙ,https://www.cian.ru/sale/flat/305653462/
30687028,"Москва, ВАО, р-н Преображенское, Жилой комплекс Преображенская площадь",55.7968231250989,37.7113476813389,Преображенская площадь,10,16,62.74,34.2,8.8,2027,Без отделки,3.15,Во двор,Монолитно-кирпичный,unknown,unknown,unknown,Новостройка,Regions Development,https://www.cian.ru/sale/flat/305437197/
27000000,"Москва, САО, р-н Савеловский, ул. Верхняя Масловка, 20",55.7956502860982,37.5618896355819,Петровский Парк,5,7,61.1,unknown,unknown,2024,Без отделки,unknown,На улицу,Кирпичный,unknown,unknown,unknown,Новостройка / Апартаменты,unknown,https://www.cian.ru/sale/flat/272639624/
33448279,"Москва, СЗАО, р-н Хорошево-Мневники, Джойс жилой комплекс",55.7741898598792,37.5077421542052,Хорошёвская,49,56,61.45,unknown,unknown,2027,Предчистовая,3.0,unknown,Монолитный,unknown,unknown,unknown,Новостройка,MR Group,https://www.cian.ru/sale/flat/306192220/
27900000,"Москва, СЗАО, р-н Хорошево-Мневники, Шелепихинская наб., 40к2",55.767656,37.501878,Шелепиха,21,24,57.5,30.2,12.0,2023,Без ремонта,3.2,На улицу и двор,unknown,Нет информации,Нет,unknown,Вторичка,unknown,https://www.cian.ru/sale/flat/302439231/
34746308,"Москва, СЗАО, р-н Хорошево-Мневники, Джойс жилой комплекс",55.7741898598792,37.5077421542052,Хорошёвская,41,56,73.67,unknown,unknown,2027,Предчистовая,3.0,unknown,Монолитный,unknown,unknown,unknown,Новостройка,MR Group,https://www.cian.ru/sale/flat/305863271/
37900000,"Москва, СВАО, р-н Марьина роща, проезд 12-й Марьиной рощи, 8С2",55.805032,37.617824,Марьина Роща,4,4,75.7,45.0,4.0,2020,Дизайнерский,6.0,На улицу и двор,Монолитно-кирпичный,Нет информации,Нет,unknown,Вторичка / Апартаменты,unknown,https://www.cian.ru/sale/flat/306826191/
103240000,"Москва, ЦАО, р-н Пресненский, Электрический пер., 1кАБ",55.770853044325726,37.5746586745884,Белорусская,10,14,84.8,27.0,27.6,2028,Без отделки,3.55,Во двор,"Монолитно-кирпичный, монолитный",unknown,unknown,unknown,Новостройка,Sminex,https://www.cian.ru/sale/flat/306566167/
82000000,"Москва, ЗАО, р-н Раменки, Мосфильмовская ул., 1к5",55.717999,37.526591,Ломоносовский проспект,3,12,65.6,unknown,16.0,2020,Без ремонта,3.25,На улицу,Монолитный,unknown,unknown,unknown,Вторичка,unknown,https://www.cian.ru/sale/flat/304696227/
96270000,"Москва, ЦАО, р-н Пресненский, 2-я Черногрязская ул.",55.7630253528094,37.547566691786,Улица 1905 года,6,10,95.6,35.7,29.0,2026,Без отделки,3.43,unknown,Монолитный,unknown,unknown,unknown,Новостройка,Sminex,https://www.cian.ru/sale/flat/306155309/
13687461,"Москва, ЮВАО, р-н Рязанский, Рязанский просп.",55.7195076406786,37.7730046188418,Окская,10,14,41.4,16.9,14.9,2027,"Без отделки, чистовая",2.75,На улицу,Монолитно-кирпичный,unknown,unknown,unknown,Новостройка,Главстрой,https://www.cian.ru/sale/flat/296871864/
54824000,"Москва, ЗАО, р-н Крылатское, Крылатская ул., 23",55.7713506652959,37.4147564920653,Крылатское,23,27,68.8,43.7,20.1,2027,Без отделки,3.1,unknown,Монолитный,unknown,unknown,unknown,Новостройка,TOUCH,https://www.cian.ru/sale/flat/306603997/
44413522,"Москва, ЮАО, р-н Даниловский, Хай Лайф жилой комплекс",55.7255172608413,37.6452039325408,Павелецкая,17,39,60.7,unknown,unknown,2027,"Без отделки, предчистовая, чистовая",3.1,unknown,Монолитный,unknown,unknown,unknown,Новостройка,Компания PIONEER,https://www.cian.ru/sale/flat/301460280/
21225176,"Москва, СЗАО, р-н Покровское-Стрешнево, Ситизен жилой комплекс",55.83029872360717,37.43668300572404,Тушинская,46,48,56.0,21.4,unknown,2027,Неизвестно,2.85,Во двор,Монолитно-кирпичный,unknown,unknown,unknown,Новостройка,unknown,https://www.cian.ru/sale/flat/305346579/
52480489,"Москва, ЗАО, р-н Филевский парк, Береговой проезд, 2",55.7597681819349,37.5078063512008,Фили,15,26,85.1,29.3,29.1,2024,Без отделки,3.2,Во двор,Монолитно-кирпичный,unknown,unknown,unknown,Новостройка,Главстрой,https://www.cian.ru/sale/flat/298342599/
16490000,"Москва, ЮЗАО, р-н Ломоносовский, ул. Гарибальди, 4К5",55.675489,37.533849,Новаторская,5,9,45.0,32.0,5.3,1964,Евроремонт,2.64,Во двор,Блочный,Центральное,Нет,unknown,Вторичка,unknown,https://www.cian.ru/sale/flat/306371748/
5170000,"Московская область, Раменское, ул. Загородная, к4",55.571149,38.273352,Раменское,2,3,53.7,39.0,7.0,2023,Без ремонта,3.25,На улицу и двор,unknown,unknown,unknown,unknown,Вторичка,unknown,https://ramenskoye.cian.ru/sale/flat/305242964/
5300000,"Московская область, Раменское, р-н Центральный, ул. Стальконструкции, 14",55.560662,38.244057,Ипподром,1,3,35.3,24.3,5.8,1959,Евроремонт,unknown,Во двор,Блочный,Центральное,Нет,unknown,Вторичка,unknown,https://ramenskoye.cian.ru/sale/flat/304295681/
6400000,"Московская область, Домодедово, мкр. Северного, Северный микрорайон, ул. Лесная, 1",55.443562,37.757422,Подольск,2,4,45.4,28.2,6.0,1965,Евроремонт,2.5,На улицу,Кирпичный,Нет информации,Нет,unknown,Вторичка,unknown,https://domodedovo.cian.ru/sale/flat/303443157/
6500000,"Московская область, Электросталь, мкр. Центральный, ул. Корешкова, 10",55.785392,38.446879,unknown,3,5,57.2,30.0,7.5,1958,Евроремонт,3.2,На улицу,Кирпичный,Центральное,Нет,unknown,Вторичка,unknown,https://elektrostal.cian.ru/sale/flat/304251971/
6700000,"Московская область, Люберцы, мкр. Люберцы 2015 2018, Зенино ЖК Самолет микрорайон, ул. Барыкина, 10/2",55.708785,37.957746,Некрасовка,17,17,39.3,23.6,6.1,2015,Евроремонт,2.8,На улицу,Кирпичный,Индивидуальный тепловой пункт,Нет,unknown,Вторичка,unknown,https://lyubertsy.cian.ru/sale/flat/304086412/
6800000,"Московская область, Щелково, мкр. Богородский, 17",55.940392,37.981013,Щёлковская,12,14,60.0,33.0,12.1,2011,Без ремонта,2.7,На улицу и двор,Монолитный,Центральное,Нет,unknown,Вторичка,unknown,https://shchyolkovo.cian.ru/sale/flat/306602225/
6900000,"Московская область, Пушкинский городской округ, Ивантеевка, ул. Толмачева, 13А",55.963939,37.920394,unknown,3,5,54.0,27.8,9.0,1985,Косметический,unknown,На улицу и двор,Панельный,Центральное,Нет,unknown,Вторичка,unknown,https://ivanteyevka.cian.ru/sale/flat/304796779/
6950000,"Московская область, Электросталь, мкр. Северный, Ногинское ш., 12",55.800625,38.430242,unknown,9,10,49.8,30.0,8.0,1996,Дизайнерский,unknown,На улицу,Панельный,Центральное,Нет,unknown,Вторичка,unknown,https://elektrostal.cian.ru/sale/flat/305278914/
7090000,"Московская область, Жуковский, мкр. Набережная Циолковского, ул. Гудкова, 20",55.602846,38.084265,Ильинская,15,15,72.2,45.3,11.0,2016,Без ремонта,unknown,На улицу и двор,Монолитно-кирпичный,Центральное,Нет,unknown,Вторичка,unknown,https://zhukovsky.cian.ru/sale/flat/305187643/
7200000,"Московская область, Ленинский городской округ, Мисайлово деревня, Пригород Лесное микрорайон, ул. Луговая, 4",55.55363,37.81963,Домодедовская,5,17,44.1,28.7,5.8,2022,Евроремонт,unknown,unknown,Блочный,Индивидуальный тепловой пункт,Нет,unknown,Вторичка,unknown,https://vidnoye.cian.ru/sale/flat/306063583/
7250000,"Московская область, Химки, мкр. Новые Химки, 9 Мая ул., 12",55.902888,37.412577,Беломорская,5,9,44.7,unknown,6.1,1977,Косметический,unknown,Во двор,Панельный,Центральное,Нет,unknown,Вторичка,unknown,https://khimki.cian.ru/sale/flat/306361189/
7500000,"Московская область, Пушкинский городской округ, Ивантеевка, ул. Толмачева, 10",55.963692,37.917753,Щёлковская,8,9,51.9,29.3,7.6,1984,Косметический,2.65,На улицу,Кирпичный,Центральное,Нет,unknown,Вторичка,unknown,https://ivanteyevka.cian.ru/sale/flat/306749157/
8240000,"Московская область, Балашиха, мкр. 15-й, Зеленая ул., 33",55.80742,37.943248,Щёлковская,2,18,60.0,32.6,12.9,2014,Без ремонта,unknown,На улицу и двор,Панельный,Центральное,Нет,unknown,Вторичка,unknown,https://balashikha.cian.ru/sale/flat/305675720/
8300000,"Москва, ЗАО, р-н Солнцево, Попутная ул., 3",55.654919,37.384325,Солнцево,1,9,37.1,22.6,7.5,1966,Без ремонта,unknown,На улицу и двор,Монолитный,Центральное,Нет,unknown,Вторичка,unknown,https://www.cian.ru/sale/flat/305064745/
8500000,"Московская область, Пушкино, мкр. Новое Пушкино, ул. Просвещения, 12к2",56.027575,37.860216,unknown,11,17,55.0,30.4,11.3,2020,Без ремонта,2.8,На улицу и двор,Кирпичный,Центральное,Нет,unknown,Вторичка,unknown,https://pushkino.cian.ru/sale/flat/306346289/
8800000,"Московская область, Видное, ул. Галины Вишневской, 5",55.536645,37.642501,Бульвар Дмитрия,5,9,46.1,26.0,9.0,2018,Евроремонт,2.65,unknown,Монолитный,Центральное,Нет,unknown,Вторичка,unknown,https://vidnoye.cian.ru/sale/flat/306379642/
9400000,"Москва, ВАО, р-н Перово, ул. Металлургов, 40",55.759831,37.797307,Перово,10,12,38.0,25.0,6.4,1996,Без ремонта,2.64,Во двор,Блочный,Центральное,Нет,unknown,Вторичка,unknown,https://www.cian.ru/sale/flat/306783791/
9555000,"Москва, ЮЗАО, р-н Южное Бутово, ул. Брусилова, 17",55.502372,37.583107,Бунинская аллея,4,14,58.4,29.1,8.0,2008,Без ремонта,2.8,На улицу,Монолитный,Центральное,Нет,unknown,Вторичка,unknown,https://www.cian.ru/sale/flat/305839152/
9700000,"Москва, САО, р-н Дмитровский, Коровинское ш., 24К1",55.882293,37.519925,Грачёвская,8,9,44.0,unknown,6.0,1967,Косметический,2.64,Во двор,Кирпичный,Центральное,Нет,unknown,Вторичка,unknown,https://www.cian.ru/sale/flat/304717367/
9900000,"Московская область, Ленинский городской округ, Бутово рп, Бутово Парк жилой комплекс, 11",55.547,37.590892,Бутово,11,17,51.0,30.0,10.0,unknown,Евроремонт,unknown,Во двор,unknown,unknown,unknown,unknown,Вторичка,unknown,https://vidnoye.cian.ru/sale/flat/301536858/
10000000,"Московская область, Красногорск городской округ, Глухово деревня, ул. Романовская, 15",55.768117,37.241259,Павшино,5,8,51.7,unknown,11.0,2021,Косметический,2.5,unknown,Монолитный,Центральное,Нет,unknown,Вторичка,unknown,https://krasnogorsk.cian.ru/sale/flat/306767210/
9990000,"Москва, НАО (Новомосковский), Внуковское поселение, ДСК Мичуринец поселок, ул. Горького, 1",55.659327,37.326312,Мичуринец,3,4,43.5,27.7,5.7,1972,Евроремонт,2.7,Во двор,unknown,Центральное,Нет,unknown,Вторичка,unknown,https://www.cian.ru/sale/flat/288001335/
10300000,"Московская область, Пушкино, мкр. Центральный, Московский просп., 44",56.002944,37.85806,Медведково,15,16,62.6,33.1,11.7,2005,Дизайнерский,2.8,На улицу,Кирпичный,Центральное,Нет,unknown,Вторичка,unknown,https://pushkino.cian.ru/sale/flat/304694343/
10299000,"Москва, СВАО, р-н Лосиноостровский, Стартовая ул., 15к1",55.885873,37.6979,Медведково,2,9,45.0,29.0,6.0,1975,Косметический,unknown,Во двор,Панельный,Центральное,Нет,unknown,Вторичка,unknown,https://www.cian.ru/sale/flat/306835440/
10500000,"Московская область, Красногорск, мкр. Опалиха, ул. Игоря Мерлушкина, 6",55.836074,37.268433,Митино,24,24,64.0,unknown,15.0,2016,Евроремонт,2.5,unknown,Монолитный,Центральное,Нет,unknown,Вторичка,unknown,https://krasnogorsk.cian.ru/sale/flat/306596921/
34000000,"Москва, ЮАО, р-н Даниловский, просп. Лихачева, 18к6",55.688243,37.651897,Технопарк,4,15,66.3,28.8,19.4,2022,Без ремонта,3.4,На улицу и двор,unknown,Нет информации,Нет,unknown,Вторичка,unknown,https://www.cian.ru/sale/flat/303485047/
35500000,"Москва, СЗАО, р-н Хорошево-Мневники, Причальный проезд, 10Б",55.760408,37.517356,Шелепиха,25,32,70.2,35.1,15.0,2023,Без ремонта,3.0,На улицу,Монолитно-кирпичный,unknown,unknown,unknown,Вторичка,unknown,https://www.cian.ru/sale/flat/303589205/
35687284,"Москва, ВАО, р-н Преображенское, Электрозаводская ул., 60",55.7940908786087,37.7087928981469,Преображенская площадь,4,12,68.0,27.1,20.7,2026,"Без отделки, черновая, чистовая",3.25,unknown,Монолитно-кирпичный,unknown,unknown,unknown,Новостройка,Stenoy,https://www.cian.ru/sale/flat/300879033/
36000000,"Москва, СЗАО, р-н Хорошево-Мневники, Причальный проезд, 10к1",55.759785,37.516727,Шелепиха,24,33,70.0,20.6,26.0,2023,Без ремонта,3.0,На улицу,unknown,Нет информации,Нет,unknown,Вторичка,unknown,https://www.cian.ru/sale/flat/305060574/
36950000,"Москва, ЦАО, р-н Пресненский, Садовая-Кудринская ул., 8-10-12",55.761102,37.586634,Баррикадная,2,7,64.0,37.0,8.0,1949,Без ремонта,3.2,Во двор,Кирпичный,Центральное,Нет,unknown,Вторичка,unknown,https://www.cian.ru/sale/flat/291808973/
37500000,"Москва, ВАО, р-н Преображенское, Краснобогатырская ул., 90С1",55.79977,37.710889,Преображенская площадь,4,11,79.0,38.0,14.7,2016,Евроремонт,3.0,На улицу,Монолитный,Центральное,Нет,unknown,Вторичка,unknown,https://www.cian.ru/sale/flat/305729909/
38000000,"Москва, ЮВАО, р-н Южнопортовый, ул. 1-я Машиностроения, 10",55.714044,37.670142,Дубровка,27,27,70.0,25.0,12.0,2012,Дизайнерский,unknown,На улицу и двор,Кирпичный,Центральное,Нет,unknown,Вторичка,unknown,https://www.cian.ru/sale/flat/305688198/
39000000,"Москва, САО, р-н Хорошевский, Ленинградский просп., 37/6",55.794173,37.542213,Аэропорт,39,41,56.9,35.0,9.0,2021,Без ремонта,3.1,На улицу,Монолитный,Центральное,Нет,unknown,Вторичка,unknown,https://www.cian.ru/sale/flat/304696164/
40000000,"Москва, ЗАО, р-н Филевский парк, ул. Василисы Кожиной, 13",55.736184,37.499866,Парк Победы,10,28,70.0,unknown,20.0,2019,Дизайнерский,unknown,unknown,Монолитный,Нет информации,Нет,unknown,Вторичка,unknown,https://www.cian.ru/sale/flat/305530363/
42500000,"Москва, ЦАО, р-н Пресненский, Ходынская ул., 2",55.770806,37.564212,Улица 1905 года,38,44,49.5,32.0,7.0,2018,Дизайнерский,unknown,На улицу,Монолитный,Индивидуальный тепловой пункт,Нет,unknown,Вторичка,unknown,https://www.cian.ru/sale/flat/304734283/
43000000,"Москва, ВАО, р-н Богородское, 1-я Мясниковская ул., 2",55.81648,37.702158,Белокаменная,10,17,75.0,42.0,15.0,2017,Дизайнерский,3.0,Во двор,Монолитный,Индивидуальный тепловой пункт,Нет,unknown,Вторичка,unknown,https://www.cian.ru/sale/flat/305626729/
44900000,"Москва, СЗАО, р-н Хорошево-Мневники, Шелепихинская наб., 34к5",55.764496,37.51149,Шелепиха,36,41,66.0,30.0,18.0,2020,Дизайнерский,3.2,На улицу,unknown,Нет информации,Нет,unknown,Вторичка,unknown,https://www.cian.ru/sale/flat/305204351/
45500000,"Москва, ЗАО, р-н Раменки, ул. Янковского, 1к3",55.695611,37.47351,Аминьевская,6,8,68.0,24.6,20.5,2022,Дизайнерский,3.0,Во двор,unknown,Нет информации,Нет,unknown,Вторичка,unknown,https://www.cian.ru/sale/flat/306076273/
47900000,"Москва, ЗАО, р-н Можайский, Гжатская ул., 5к4",55.713517,37.43711,Давыдково,16,23,83.9,63.5,10.0,2019,Евроремонт,3.0,На улицу и двор,Монолитный,Центральное,Нет,unknown,Вторичка,unknown,https://www.cian.ru/sale/flat/302627994/
60000000,"Москва, ЦАО, р-н Якиманка, ул. Серафимовича, 2",55.74446,37.613018,Боровицкая,10,10,60.0,unknown,unknown,1933,Дизайнерский,3.4,На улицу и двор,Кирпичный,Центральное,Нет,unknown,Вторичка,unknown,https://www.cian.ru/sale/flat/303069476/
62750000,"Москва, ЦАО, р-н Тверской, ул. Александра Невского, 27",55.776669,37.588817,Белорусская,8,18,84.0,67.0,10.0,2008,Дизайнерский,unknown,Во двор,Кирпичный,Индивидуальный тепловой пункт,Нет,unknown,Вторичка,unknown,https://www.cian.ru/sale/flat/305290552/
70000000,"Москва, ЦАО, р-н Якиманка, Софийская наб., 34",55.747287,37.622783,Новокузнецкая,4,8,49.8,34.0,10.0,2019,Евроремонт,3.0,Во двор,Монолитный,unknown,unknown,unknown,Вторичка / Апартаменты,unknown,https://www.cian.ru/sale/flat/305311254/
72500000,"Москва, ЦАО, р-н Якиманка, Софийская наб., 34",55.747287,37.622783,Новокузнецкая,6,8,54.8,30.0,14.0,2019,Евроремонт,3.0,Во двор,Монолитный,unknown,unknown,unknown,Вторичка / Апартаменты,unknown,https://www.cian.ru/sale/flat/305390206/
78000000,"Москва, ЦАО, р-н Якиманка, Софийская наб., 34",55.747287,37.622783,Новокузнецкая,7,8,55.2,30.0,15.0,2019,Дизайнерский,3.0,Во двор,Монолитный,unknown,unknown,unknown,Вторичка / Апартаменты,unknown,https://www.cian.ru/sale/flat/304513569/
87500000,"Москва, ЦАО, р-н Пресненский, Дружинниковская ул., 15",55.7600841566333,37.5753208981474,Краснопресненская,11,20,96.9,48.3,16.0,2024,Чистовая,unknown,На улицу,Монолитно-кирпичный,unknown,unknown,unknown,Новостройка / Апартаменты,unknown,https://www.cian.ru/sale/flat/293809448/
128000000,"Москва, ЦАО, р-н Пресненский, Мантулинская ул., 9к6",55.75475,37.541889,Деловой центр,12,20,103.0,50.0,20.0,2021,Дизайнерский,unknown,На улицу и двор,Монолитный,Центральное,Нет,unknown,Вторичка,unknown,https://www.cian.ru/sale/flat/300610097/
215574000,"Москва, ЦАО, р-н Таганский, Серебряническая наб., 19",55.750018,37.649741,Чкаловская,2,6,137.6,unknown,65.0,2011,Дизайнерский,3.9,unknown,Монолитный,Индивидуальный тепловой пункт,Нет,unknown,Вторичка,unknown,https://www.cian.ru/sale/flat/301956535/
230000000,"Москва, ЦАО, р-н Тверской, 1-я Тверская-Ямская ул., 2",55.77079,37.595492,Маяковская,3,9,148.5,42.0,17.0,2023,Дизайнерский,3.5,Во двор,Монолитный,unknown,unknown,unknown,Вторичка / Апартаменты,unknown,https://www.cian.ru/sale/flat/291004202/
4750000,"Московская область, Жуковский, мкр. 2-й, ул. Гагарина, 25",55.604732,38.099995,Ильинская,4,5,42.7,22.0,6.0,1966,Без ремонта,2.6,Во двор,Монолитный,Центральное,Нет,unknown,Вторичка,unknown,https://zhukovsky.cian.ru/sale/flat/304369759/
5000000,"Московская область, Пушкино, мкр. Западный, проезд 3-й Акуловский, 5",56.009552,37.820044,Медведково,5,5,40.8,27.6,6.0,1972,Без ремонта,2.5,На улицу и двор,Кирпичный,Центральное,Нет,unknown,Вторичка,unknown,https://pushkino.cian.ru/sale/flat/304822923/
20499999,"Москва, ВАО, р-н Измайлово, Измайловский бул., 38",55.796395,37.800712,Первомайская,4,5,78.4,42.1,10.1,1955,Дизайнерский,3.0,На улицу и двор,Кирпичный,Центральное,Нет,unknown,Вторичка,unknown,https://www.cian.ru/sale/flat/306157468/
21300000,"Москва, ЮВАО, р-н Печатники, Левел Южнопортовая жилой комплекс, 7",55.705133,37.693282,Кожуховская,6,29,63.2,36.4,11.1,2025,Чистовая,2.92,Во двор,Монолитный,unknown,unknown,unknown,Новостройка,unknown,https://www.cian.ru/sale/flat/304547880/
23300000,"Москва, ЦАО, р-н Хамовники, ул. Хамовнический Вал, 8",55.716788,37.574929,Спортивная,3,9,44.0,26.0,8.0,1960,Евроремонт,2.8,На улицу и двор,Кирпичный,Центральное,Нет,unknown,Вторичка,unknown,https://www.cian.ru/sale/flat/303444709/
23600000,"Москва, САО, р-н Аэропорт, ул. Усиевича, 29К2",55.806879,37.518623,Сокол,2,12,56.3,30.1,11.7,2003,Евроремонт,2.65,На улицу и двор,Панельный,Центральное,Нет,unknown,Вторичка,unknown,https://www.cian.ru/sale/flat/304389121/
23900000,"Москва, ЗАО, р-н Тропарево-Никулино, Никулинская ул., 19",55.666462,37.451285,Озёрная,5,22,59.4,35.0,10.1,1993,Евроремонт,2.66,На улицу и двор,Панельный,Центральное,Нет,unknown,Вторичка,unknown,https://www.cian.ru/sale/flat/306693892/
23950000,"Москва, ЗАО, р-н Кунцево, ул. Академика Павлова, 40",55.743806,37.407142,Молодёжная,13,26,60.5,34.1,11.8,2021,Без ремонта,2.8,На улицу и двор,Монолитный,Индивидуальный тепловой пункт,Нет,unknown,Вторичка,unknown,https://www.cian.ru/sale/flat/303685042/
24000000,"Москва, ЗАО, р-н Кунцево, Ярцевская ул., 24К1",55.739134,37.414364,Молодёжная,20,25,68.7,30.5,14.7,2017,Евроремонт,2.7,На улицу,Монолитный,Индивидуальный тепловой пункт,Нет,unknown,Вторичка,unknown,https://www.cian.ru/sale/flat/287392220/
24490000,"Москва, САО, р-н Войковский, Головинское ш., 10Б",55.837181,37.497315,Водный стадион,22,37,46.4,30.5,5.0,2019,Евроремонт,3.0,На улицу,Монолитный,Центральное,Нет,unknown,Вторичка,unknown,https://www.cian.ru/sale/flat/304347794/
24750000,"Москва, ЮАО, р-н Даниловский, Подольское ш., 3",55.713248,37.62448,Тульская,3,13,32.8,12.0,10.0,2024,Чистовая,unknown,На улицу,Монолитно-кирпичный,unknown,unknown,unknown,Новостройка / Апартаменты,unknown,https://www.cian.ru/sale/flat/292676773/
24700000,"Москва, СВАО, р-н Бутырский, Новодмитровская ул., 2к6",55.803003,37.591503,Дмитровская,44,47,54.4,34.0,14.0,2017,Без ремонта,3.0,Во двор,Монолитный,Центральное,Нет,unknown,Вторичка,unknown,https://www.cian.ru/sale/flat/306668327/
24990000,"Москва, ЗАО, р-н Раменки, Мичуринский просп., 9К3",55.700162,37.506496,Раменки,2,17,65.0,31.0,18.0,2001,Косметический,3.1,Во двор,unknown,Котел/Квартирное отопление,Нет,unknown,Вторичка,unknown,https://www.cian.ru/sale/flat/299370205/
25000000,"Москва, СВАО, р-н Марфино, ул. Академика Королева, 21",55.8205830303055,37.6022541586287,Телецентр,18,30,44.3,22.0,10.0,2024,Без отделки,3.0,Во двор,Монолитный,unknown,unknown,unknown,Новостройка,unknown,https://www.cian.ru/sale/flat/302722408/
25500000,"Москва, СЗАО, р-н Хорошево-Мневники, Шелепихинская наб., 40к3",55.768188,37.502893,Народное Ополчение,9,23,49.8,30.5,9.3,2023,Евроремонт,3.2,Во двор,unknown,Нет информации,Нет,unknown,Вторичка,unknown,https://www.cian.ru/sale/flat/303274911/
26000000,"Москва, ЗАО, р-н Филевский парк, ул. Василисы Кожиной, 13",55.736184,37.499866,Парк Победы,12,28,49.6,35.0,9.0,2019,Евроремонт,unknown,Во двор,Монолитный,Нет информации,Нет,unknown,Вторичка / Апартаменты,unknown,https://www.cian.ru/sale/flat/301322086/
25990000,"Москва, ЮАО, р-н Нагорный, Электролитный проезд, 7",55.673428,37.609811,Нагорная,6,27,65.7,32.8,13.6,2023,Без ремонта,2.87,Во двор,Монолитный,Центральное,Нет,unknown,Вторичка,unknown,https://www.cian.ru/sale/flat/304485900/
26100000,"Москва, ЦАО, р-н Тверской, Садовая-Каретная ул., 8С2",55.772198,37.607475,Маяковская,3,4,52.6,unknown,20.0,1917,Косметический,unknown,На улицу и двор,Кирпичный,Центральное,Нет,unknown,Вторичка,unknown,https://www.cian.ru/sale/flat/306752018/
28402900,"Москва, СЗАО, р-н Щукино, ул. Ротмистрова, 2",55.7915307851883,37.47701146159,Октябрьское поле,15,19,65.9,29.3,19.3,2024,Без отделки,3.3,unknown,Монолитный,unknown,unknown,unknown,Новостройка,Концерн КРОСТ,https://www.cian.ru/sale/flat/298380338/
28800000,"Москва, ВАО, р-н Богородское, 1-я Мясниковская ул., 2",55.81648,37.702158,Белокаменная,8,19,64.0,30.0,9.5,2017,Евроремонт,3.0,Во двор,Монолитный,Индивидуальный тепловой пункт,Нет,unknown,Вторичка,unknown,https://www.cian.ru/sale/flat/304989531/
29500000,"Москва, САО, р-н Беговой, ул. 1-я Ямского Поля, 1к1",55.779271,37.581676,Белорусская,8,37,48.2,37.1,5.0,2023,Без ремонта,unknown,Во двор,Монолитный,unknown,unknown,unknown,Вторичка,unknown,https://www.cian.ru/sale/flat/306600530/
30400000,"Москва, СЗАО, р-н Хорошево-Мневники, Шелепихинская наб., 42к3",55.768,37.499597,Народное Ополчение,7,36,56.8,28.2,13.2,2021,Без ремонта,3.1,Во двор,unknown,Индивидуальный тепловой пункт,Нет,unknown,Вторичка,unknown,https://www.cian.ru/sale/flat/305374307/
31000000,"Москва, ВАО, р-н Богородское, Краснобогатырская ул., 38к3",55.809216,37.701466,Преображенская площадь,9,17,66.4,28.2,20.8,2024,Без отделки,2.8,На улицу,Монолитный,unknown,unknown,unknown,Новостройка,unknown,https://www.cian.ru/sale/flat/303881271/
30750000,"Москва, ЮАО, р-н Даниловский, Подольское ш., 3",55.713248,37.62448,Тульская,3,13,41.1,17.0,12.0,2024,Чистовая,unknown,На улицу,Монолитно-кирпичный,unknown,unknown,unknown,Новостройка / Апартаменты,unknown,https://www.cian.ru/sale/flat/292676770/
32617585,"Москва, ВАО, р-н Преображенское, Электрозаводская ул., 60",55.7940908786087,37.7087928981469,Преображенская площадь,10,12,55.0,25.8,12.3,2026,"Без отделки, черновая, чистовая",3.25,unknown,Монолитно-кирпичный,unknown,unknown,unknown,Новостройка,Stenoy,https://www.cian.ru/sale/flat/300879222/
32700000,"Москва, ЦАО, р-н Басманный, ул. Казакова, 7",55.76336,37.659772,Курская,6,11,55.1,25.7,14.3,2022,Без ремонта,unknown,Во двор,Монолитно-кирпичный,unknown,unknown,unknown,Вторичка / Апартаменты,unknown,https://www.cian.ru/sale/flat/306805961/
33000000,"Москва, ЗАО, р-н Филевский парк, ул. Василисы Кожиной, 13",55.736184,37.499866,Парк Победы,5,28,62.4,34.0,10.0,2019,Дизайнерский,3.0,На улицу и двор,Монолитный,Нет информации,Нет,unknown,Вторичка / Апартаменты,unknown,https://www.cian.ru/sale/flat/306636196/
19490000,"Москва, НАО (Новомосковский), просп. Прокшинский, 12",55.591549,37.425117,Прокшино,10,17,53.5,unknown,13.0,2022,Дизайнерский,2.84,unknown,Монолитный,Центральное,Нет,unknown,Вторичка,unknown,https://www.cian.ru/sale/flat/306731083/
21499360,"Москва, ЮЗАО, р-н Котловка, Севастопольский просп., 22А",55.6781903183334,37.5927703788458,Нагорная,24,42,43.0,15.0,unknown,2023,"Без отделки, предчистовая",3.02,unknown,Монолитный,unknown,unknown,unknown,Новостройка,TEKTA GROUP,https://www.cian.ru/sale/flat/301259741/
158000000,"Москва, ЦАО, р-н Хамовники, Мансуровский пер., 10С2",55.740309,37.593785,Парк Культуры,4,5,50.0,30.0,8.0,1912,Евроремонт,3.0,unknown,Кирпичный,Центральное,Нет,unknown,Вторичка,unknown,https://www.cian.ru/sale/flat/305271250/
29900000,"Москва, ЗАО, р-н Дорогомилово, Большая Дорогомиловская ул., 16",55.74673,37.557547,Киевская,7,9,44.0,unknown,7.0,1962,Дизайнерский,unknown,На улицу,Кирпичный,Центральное,Нет,unknown,Вторичка,unknown,https://www.cian.ru/sale/flat/306863782/
28625560,"Москва, ЗАО, р-н Филевский парк, Береговой проезд, 2",55.7597681819349,37.5078063512008,Фили,4,22,67.1,21.5,22.3,2024,Без отделки,3.2,На улицу,Монолитно-кирпичный,unknown,unknown,unknown,Новостройка,Главстрой,https://www.cian.ru/sale/flat/306076580/
70000000,"Москва, ЦАО, р-н Пресненский, ул. Костикова, 4к4",55.761178,37.555238,Улица 1905 года,5,21,65.0,unknown,10.0,2023,Дизайнерский,unknown,На улицу и двор,unknown,Нет информации,Нет,unknown,Вторичка,unknown,https://www.cian.ru/sale/flat/306596070/
9750000,"Москва, ВАО, р-н Измайлово, Сиреневый бул., 22",55.802361,37.792349,Щёлковская,1,5,43.0,25.0,7.0,unknown,Косметический,unknown,На улицу и двор,unknown,unknown,unknown,unknown,Вторичка,unknown,https://www.cian.ru/sale/flat/304555608/
45289764,"Москва, ЗАО, Рублево-Архангельское микрорайон, Сберсити жилой комплекс, В20 квартал",55.7887728612671,37.3438008900958,Павшино,3,13,82.36,32.9,22.0,2024,Чистовая,3.53,На улицу,Монолитно-кирпичный,unknown,unknown,unknown,Новостройка,Рублево-Архангельское,https://www.cian.ru/sale/flat/293721204/
51000000,"Москва, САО, р-н Хорошевский, Ленинградский просп., 37/4",55.793313,37.540533,ЦСКА,5,41,68.0,unknown,10.0,2021,Дизайнерский,unknown,На улицу и двор,Монолитный,Центральное,Нет,unknown,Вторичка,unknown,https://www.cian.ru/sale/flat/305314555/
14350000,"Москва, САО, р-н Левобережный, Беломорская ул., 7К2",55.866935,37.469907,Беломорская,8,9,40.0,unknown,8.0,1962,Дизайнерский,unknown,Во двор,Блочный,Центральное,Нет,unknown,Вторичка,unknown,https://www.cian.ru/sale/flat/305903843/
25267200,"Москва, ЗАО, Рублево-Архангельское микрорайон, Сберсити жилой комплекс, В14 квартал",55.7906275555436,37.3432542460075,Павшино,2,11,47.0,25.5,6.0,2026,"Без отделки, чистовая",2.9,Во двор,Монолитно-кирпичный,unknown,unknown,unknown,Новостройка,Рублево-Архангельское,https://www.cian.ru/sale/flat/298516517/
41150000,"Москва, САО, р-н Хорошевский, Ленинградский просп., 37/3",55.79307,37.541853,Аэропорт,13,40,47.3,unknown,unknown,2022,Дизайнерский,3.1,На улицу и двор,unknown,Нет информации,Нет,unknown,Вторичка,unknown,https://www.cian.ru/sale/flat/296216266/
11200000,"Москва, ВАО, р-н Гольяново, Курганская ул., 4",55.82937,37.814753,Щёлковская,5,14,54.0,30.0,9.0,1990,Косметический,2.65,На улицу и двор,Панельный,Центральное,Нет,unknown,Вторичка,unknown,https://www.cian.ru/sale/flat/305840851/
141031579,"Москва, ЦАО, р-н Арбат, ул. Арбат, 24",55.750069,37.592285,Арбатская,7,8,121.8,unknown,unknown,2019,Черновая,3.3,На улицу и двор,Монолитный,unknown,unknown,unknown,Новостройка,Era One Holding,https://www.cian.ru/sale/flat/305196550/
55000000,"Москва, САО, р-н Хорошевский, Ленинградский просп., 37/5",55.793875,37.541018,Аэропорт,27,40,73.0,unknown,unknown,2021,Без ремонта,3.2,На улицу и двор,unknown,Центральное,Нет,unknown,Вторичка,unknown,https://www.cian.ru/sale/flat/305373653/
11690000,"Московская область, Котельники, Парковый микрорайон, 1к3",55.658794,37.875128,Жулебино,7,26,65.9,unknown,16.0,2020,Евроремонт,2.65,На улицу и двор,Кирпичный,Центральное,Нет,unknown,Вторичка,unknown,https://kotelniki.cian.ru/sale/flat/305813510/
181440000,"Москва, ЦАО, р-н Якиманка, Софийская наб., 34С3",55.7463922322426,37.622796830688,Новокузнецкая,5,6,75.6,unknown,unknown,2026,Без отделки,3.03,На улицу,Монолитный,unknown,unknown,unknown,Новостройка,Hutton Development,https://www.cian.ru/sale/flat/303616433/
68000000,"Москва, ЦАО, р-н Пресненский, ул. Костикова, 4к3",55.761097,37.555966,Улица 1905 года,2,21,72.0,unknown,30.0,2023,Дизайнерский,3.1,Во двор,unknown,Нет информации,Нет,unknown,Вторичка,unknown,https://www.cian.ru/sale/flat/306144590/
26500000,"Москва, ЦАО, р-н Хамовники, ул. Доватора, 6/6К8",55.723962,37.568408,Спортивная,2,5,63.0,unknown,10.0,1926,Евроремонт,3.1,Во двор,Кирпичный,Центральное,Нет,unknown,Вторичка,unknown,https://www.cian.ru/sale/flat/305857642/
58003000,"Москва, ЦАО, р-н Хамовники, Коллекция Лужники жилой комплекс",55.715275061735,37.5711844656955,Воробьёвы горы,9,17,49.8,27.9,unknown,2026,"Без отделки, предчистовая",3.25,unknown,Монолитный,unknown,unknown,unknown,Новостройка,Absolute Premium,https://www.cian.ru/sale/flat/304065669/
115000000,"Москва, ЦАО, р-н Пресненский, 2-я Звенигородская ул., 16",55.763295,37.555391,Улица 1905 года,5,21,117.0,71.0,34.0,2023,Дизайнерский,unknown,На улицу и двор,unknown,Нет информации,Нет,unknown,Вторичка,unknown,https://www.cian.ru/sale/flat/301565559/
15300000,"Москва, СВАО, р-н Отрадное, ул. Пестеля, 2",55.862833,37.614581,Отрадное,8,9,44.0,unknown,6.5,1975,Дизайнерский,2.64,Во двор,Панельный,Центральное,Нет,unknown,Вторичка,unknown,https://www.cian.ru/sale/flat/306152704/
51812800,"Москва, ЦАО, р-н Замоскворечье, Шлюзовая наб., 2/1С1",55.732464,37.642312,Павелецкая,3,8,75.2,42.7,5.7,2028,Без отделки,3.3,Во двор,Монолитный,unknown,unknown,unknown,Новостройка,Галс-Девелопмент,https://www.cian.ru/sale/flat/303040534/
36000000,"Москва, СЗАО, р-н Хорошево-Мневники, Шелепихинская наб., 34к5",55.764496,37.51149,Шелепиха,16,41,50.0,20.0,26.0,2023,Евроремонт,3.2,Во двор,unknown,Нет информации,Нет,unknown,Вторичка,unknown,https://www.cian.ru/sale/flat/305015991/
13990000,"Москва, ЗАО, р-н Очаково-Матвеевское, Очаковское ш., 11К1",55.693546,37.455579,Аминьевская,5,9,44.8,29.5,6.2,1971,Евроремонт,unknown,Во двор,Панельный,Центральное,Нет,unknown,Вторичка,unknown,https://www.cian.ru/sale/flat/306269590/
10500000,"Московская область, Одинцовский городской округ, Усово-Тупик поселок, 15",55.728484,37.223221,Крылатское,8,10,59.0,unknown,11.0,2012,Евроремонт,unknown,unknown,Кирпичный,Центральное,Нет,unknown,Вторичка,unknown,https://odintsovo.cian.ru/sale/flat/306886339/
10700000,"Московская область, Сергиев Посад, мкр. Клементьевский, просп. Красной Армии, 2а",56.294146,38.128202,unknown,5,5,57.2,32.5,7.0,1957,Дизайнерский,3.1,Во двор,Кирпичный,Центральное,Нет,unknown,Вторичка,unknown,https://sergiyev-posad.cian.ru/sale/flat/305929997/
10762500,"Московская область, Котельники, проезд 3-й Покровский, 7",55.669422,37.860342,Котельники,12,25,64.0,unknown,12.0,2012,Косметический,2.8,Во двор,Кирпичный,Центральное,Нет,unknown,Вторичка,unknown,https://kotelniki.cian.ru/sale/flat/306439004/
10990000,"Московская область, Раменское, ул. Крымская, 5",55.574162,38.257748,Ипподром,5,17,65.0,33.0,15.0,2017,Дизайнерский,2.8,На улицу и двор,Монолитный,Центральное,Нет,unknown,Вторичка,unknown,https://ramenskoye.cian.ru/sale/flat/297968588/
10900000,"Москва, ЮЗАО, р-н Зюзино, Балаклавский просп., 30К2",55.644953,37.585152,Каховская,5,9,44.4,unknown,6.0,1965,Без ремонта,unknown,Во двор,Блочный,Центральное,Нет,unknown,Вторичка,unknown,https://www.cian.ru/sale/flat/303229587/
11000000,"Московская область, Химки, мкр. Левобережный, Совхозная ул., 18к2",55.901188,37.480507,Ховрино,23,25,58.6,34.8,10.0,2015,Косметический,2.64,На улицу и двор,Панельный,Центральное,Нет,unknown,Вторичка,unknown,https://khimki.cian.ru/sale/flat/304067905/
11400000,"Москва, ЮЗАО, р-н Южное Бутово, Ливенская ул., 6",55.547382,37.561814,Улица Скобелевская,7,9,44.0,unknown,6.0,1977,Косметический,2.64,unknown,Панельный,unknown,unknown,unknown,Вторичка,unknown,https://www.cian.ru/sale/flat/306768953/
11800000,"Московская область, Видное, бул. Зеленые аллеи, 4",55.557872,37.697828,Домодедовская,7,17,73.0,42.0,16.0,2018,Евроремонт,3.0,На улицу и двор,Кирпичный,Автономная котельная,Нет,unknown,Вторичка,unknown,https://vidnoye.cian.ru/sale/flat/306576512/
11600000,"Москва, САО, р-н Бескудниковский, Бескудниковский бул., 55К3",55.871501,37.539545,Яхромская,10,12,45.0,28.7,6.2,1968,Косметический,2.64,unknown,unknown,Центральное,Нет,unknown,Вторичка,unknown,https://www.cian.ru/sale/flat/306012392/
12100000,"Москва, СЗАО, р-н Щукино, Сосновая ул., 3",55.806676,37.482744,Щукинская,7,17,51.1,44.0,2.1,2019,Евроремонт,unknown,unknown,unknown,unknown,unknown,unknown,Вторичка,unknown,https://www.cian.ru/sale/flat/307008744/
12300000,"Московская область, Люберцы, ул. Рождественская, 10",55.679273471557,37.91821630118,Люберцы,3,22,59.0,29.3,12.1,2023,Чистовая,unknown,На улицу,Монолитный,unknown,unknown,unknown,Новостройка,unknown,https://lyubertsy.cian.ru/sale/flat/305234937/
12950000,"Московская область, Красногорск, мкр. Павшинская пойма, бул. Павшинский, 16",55.8174,37.368559,Мякинино,16,22,73.5,unknown,10.0,2010,Косметический,2.5,Во двор,Панельный,Центральное,Нет,unknown,Вторичка,unknown,https://krasnogorsk.cian.ru/sale/flat/303383668/
13800000,"Московская область, Красногорск, мкр. Павшинская пойма, бул. Красногорский, 6",55.814887,37.365855,Пенягино,25,25,60.2,unknown,17.0,2012,Евроремонт,2.64,На улицу,Монолитный,Центральное,Нет,unknown,Вторичка,unknown,https://krasnogorsk.cian.ru/sale/flat/300160203/
16800000,"Московская область, Химки, мкр. Левобережный, Совхозная ул., 15",55.899017,37.474435,Левобережная,20,25,65.0,28.0,22.1,2019,Евроремонт,2.7,unknown,Монолитный,Центральное,Нет,unknown,Вторичка,unknown,https://khimki.cian.ru/sale/flat/302522023/
17000000,"Москва, НАО (Новомосковский), Московский поселение, Саларьево Парк жилой комплекс",55.612787,37.41264,Саларьево,4,14,64.9,31.4,18.9,2024,Чистовая,unknown,На улицу и двор,Монолитный,unknown,unknown,unknown,Новостройка,unknown,https://www.cian.ru/sale/flat/296571064/
17200000,"Москва, ТАО (Троицкий), Троицк, пл. Академическая, 1",55.48525,37.303827,Новомосковская,4,17,72.6,40.0,13.0,2007,Евроремонт,unknown,Во двор,unknown,Центральное,Нет,unknown,Вторичка,unknown,https://www.cian.ru/sale/flat/305335807/
18100000,"Москва, НАО (Новомосковский), Коммунарка поселок, ул. Бачуринская, 17",55.574554,37.487433,Новомосковская,3,12,52.0,unknown,17.0,2016,Дизайнерский,3.0,Во двор,unknown,Индивидуальный тепловой пункт,Нет,unknown,Вторичка,unknown,https://www.cian.ru/sale/flat/290298188/
18900000,"Москва, ЮЗАО, р-н Ломоносовский, Ленинский просп., 85",55.680828,37.535862,Университет,8,8,48.2,30.7,7.3,1960,Евроремонт,2.8,На улицу,Кирпичный,Центральное,Нет,unknown,Вторичка,unknown,https://www.cian.ru/sale/flat/304734950/
19500000,"Москва, ЮАО, р-н Даниловский, ул. Родченко, 2",55.698958,37.630728,ЗИЛ,10,13,42.4,16.3,14.0,2023,Без ремонта,unknown,Во двор,unknown,Нет информации,Нет,unknown,Вторичка,unknown,https://www.cian.ru/sale/flat/303275083/
19900000,"Москва, ЮЗАО, р-н Котловка, Нагорный бул., 9",55.673519,37.596435,Нагорная,5,5,56.4,35.0,8.0,1958,Дизайнерский,3.2,На улицу и двор,Кирпичный,Центральное,Нет,unknown,Вторичка,unknown,https://www.cian.ru/sale/flat/305740363/
19999000,"Москва, ЮАО, р-н Даниловский, Мытная ул., 62",55.713998,37.619989,Тульская,9,9,45.0,30.0,6.0,1974,Евроремонт,2.64,Во двор,Панельный,Центральное,Нет,unknown,Вторичка,unknown,https://www.cian.ru/sale/flat/306229577/
20295000,"Москва, ВАО, р-н Сокольники, Большая Остроумовская ул., 11К2",55.793794,37.685413,Сокольники,4,4,53.7,unknown,25.0,1957,Дизайнерский,3.0,unknown,Кирпичный,Центральное,Нет,unknown,Вторичка,unknown,https://www.cian.ru/sale/flat/305734105/
24036508,"Москва, САО, р-н Хорошевский, Ходынский бул., 2",55.789396,37.536832,ЦСКА,3,15,64.8,unknown,55.8,2016,Без ремонта,3.0,На улицу,Монолитный,Нет информации,Нет,unknown,Вторичка / Апартаменты,unknown,https://www.cian.ru/sale/flat/301732549/
24400000,"Москва, ЮЗАО, р-н Ломоносовский, ул. Архитектора Власова, 2",55.682001,37.553478,Профсоюзная,20,26,58.0,unknown,10.0,2022,unknown,2.72,unknown,unknown,Центральное,Нет,unknown,Вторичка,unknown,https://www.cian.ru/sale/flat/303836061/
24700000,"Москва, ЮВАО, р-н Лефортово, ул. Крузенштерна, 12к3",55.750844,37.706622,Авиамоторная,11,26,54.5,unknown,12.9,2023,Евроремонт,3.06,unknown,unknown,Нет информации,Нет,unknown,Вторичка,unknown,https://www.cian.ru/sale/flat/305669577/
18707580,"Москва, ЮАО, р-н Даниловский, Эра жилой комплекс, 1",55.72013197209565,37.64497606666403,Пролетарская,10,27,38.7,22.6,unknown,2026,"Без отделки, предчистовая",3.15,unknown,Монолитный,unknown,unknown,unknown,Новостройка,TEKTA GROUP,https://www.cian.ru/sale/flat/301260531/
27500000,"Москва, САО, р-н Беговой, ул. 3-я Ямского Поля, 9",55.781626,37.580894,Белорусская,5,6,43.0,unknown,unknown,2016,Дизайнерский,unknown,На улицу,Монолитный,Нет информации,Нет,unknown,Вторичка / Апартаменты,unknown,https://www.cian.ru/sale/flat/272003903/
15300000,"Московская область, Реутов, мкр. Южный Реутов, Юбилейный просп., 66",55.752688,37.881686,Новокосино,23,25,65.0,38.0,12.0,2014,Дизайнерский,2.9,Во двор,Панельный,Котел/Квартирное отопление,Нет,unknown,Вторичка,unknown,https://reutov.cian.ru/sale/flat/306787039/
64704000,"Москва, ЦАО, р-н Пресненский, 1-й Красногвардейский проезд, 22с1",55.751138,37.533742,Москва,42,66,67.4,unknown,unknown,2020,"Без отделки, чистовая",3.9,На улицу,Монолитный,unknown,unknown,unknown,Новостройка / Апартаменты,СТ Тауэрс,https://www.cian.ru/sale/flat/302833885/
51000000,"Москва, ЗАО, р-н Дорогомилово, Поклонная ул., 9",55.734334,37.525324,Парк Победы,10,34,64.4,38.0,15.0,unknown,Дизайнерский,3.2,На улицу,unknown,unknown,unknown,unknown,Вторичка / Апартаменты,unknown,https://www.cian.ru/sale/flat/304817239/
22900000,"Москва, ЦАО, р-н Басманный, Малая Почтовая ул., 5/12С1",55.770902,37.685251,Бауманская,2,14,44.0,unknown,6.0,1976,Дизайнерский,2.64,Во двор,Блочный,Центральное,Нет,unknown,Вторичка,unknown,https://www.cian.ru/sale/flat/306525767/
175450000,"Москва, ЦАО, р-н Якиманка, Лаврушинский жилой комплекс",55.73947093663778,37.6198381825247,Третьяковская,2,14,85.6,34.6,15.5,2024,Без отделки,3.35,unknown,Монолитный,unknown,unknown,unknown,Новостройка,Sminex,https://www.cian.ru/sale/flat/293713880/
134500000,"Москва, ЦАО, р-н Хамовники, ул. Усачева, 15А",55.7256,37.570276,Спортивная,9,14,99.9,unknown,20.0,2022,Без ремонта,unknown,unknown,Монолитный,Центральное,Нет,unknown,Вторичка,unknown,https://www.cian.ru/sale/flat/303778337/
70000000,"Москва, ЦАО, р-н Таганский, Котельническая наб., 1/15кА",55.746081,37.642429,Таганская,8,13,73.0,30.0,12.0,1952,Дизайнерский,unknown,На улицу,unknown,Центральное,Нет,unknown,Вторичка,unknown,https://www.cian.ru/sale/flat/304129692/
26438652,"Москва, САО, р-н Савеловский, 2-я Хуторская ул., 34",55.8061573028355,37.5718057748288,Дмитровская,5,43,57.89,24.1,unknown,2025,"Предчистовая, чистовая",3.0,unknown,Монолитный,unknown,unknown,unknown,Новостройка,MR Group,https://www.cian.ru/sale/flat/300287890/
51000000,"Москва, ЗАО, р-н Дорогомилово, Поклонная ул., 9",55.73424319570742,37.5250665079334,Парк Победы,10,34,64.4,unknown,32.0,2024,Чистовая,unknown,unknown,Монолитно-кирпичный,unknown,unknown,unknown,Новостройка / Апартаменты,unknown,https://www.cian.ru/sale/flat/305912494/
15420000,"Москва, СВАО, р-н Марфино, Ботаническая ул., 19Б",55.82841,37.599777,Фонвизинская,12,14,43.7,25.0,6.3,1975,Дизайнерский,unknown,Во двор,Блочный,Центральное,Нет,unknown,Вторичка,unknown,https://www.cian.ru/sale/flat/306404369/
403620000,"Москва, ЦАО, р-н Пресненский, Трехпрудный пер., 9С2",55.765043,37.596552,Пушкинская,1,6,192.2,unknown,unknown,2027,Чистовая,3.25,unknown,Кирпичный,unknown,unknown,unknown,Новостройка / Апартаменты,VESPER,https://www.cian.ru/sale/flat/305311557/
37900000,"Москва, ЦАО, р-н Басманный, Нижняя Красносельская ул., 35С48",55.774958,37.672971,Бауманская,3,10,90.0,60.0,20.0,2015,Без ремонта,5.8,На улицу,Монолитный,Нет информации,Нет,unknown,Вторичка / Апартаменты,unknown,https://www.cian.ru/sale/flat/303439862/
15950000,"Москва, ЮАО, р-н Чертаново Южное, Кировоградская ул., 38К1",55.603502,37.598932,Пражская,21,22,56.9,34.4,10.2,1990,Косметический,2.7,На улицу и двор,Панельный,Центральное,Нет,unknown,Вторичка,unknown,https://www.cian.ru/sale/flat/306133610/
22803806,"Москва, ЮАО, р-н Даниловский, Павелецкая Сити жилой комплекс",55.718765,37.636392,Павелецкая,3,28,60.6,39.6,unknown,2027,"Без отделки, предчистовая",3.02,unknown,"Монолитно-кирпичный, монолитный, кирпичный",unknown,unknown,unknown,Новостройка,MR Group,https://www.cian.ru/sale/flat/306614015/
179000000,"Москва, ЦАО, р-н Пресненский, 2-я Звенигородская ул., 11",55.761538,37.554214,Улица 1905 года,17,18,117.0,76.0,13.0,2016,Дизайнерский,4.5,На улицу,Монолитный,Центральное,Нет,unknown,Вторичка / Пентхаус,unknown,https://www.cian.ru/sale/flat/294872333/
19600000,"Москва, ЦАО, р-н Пресненский, Красногвардейский бул., 5К2",55.759679,37.541278,Шелепиха,4,16,37.0,20.0,10.0,1977,Дизайнерский,2.7,Во двор,Блочный,Центральное,Нет,unknown,Вторичка,unknown,https://www.cian.ru/sale/flat/305111360/
35853300,"Москва, ЮВАО, р-н Южнопортовый, Шампайн жилой комплекс, к2",55.7262978257098,37.6779139925538,Волгоградский проспект,5,13,65.32,27.2,unknown,2024,"Без отделки, чистовая",5.7,unknown,Монолитный,unknown,unknown,unknown,Новостройка,TOUCH,https://www.cian.ru/sale/flat/302838426/
19500000,"Москва, СЗАО, р-н Митино, Муравская ул., 44к2",55.859564,37.375629,Пятницкое шоссе,20,24,60.0,45.0,10.0,2022,Евроремонт,2.8,Во двор,unknown,Нет информации,Нет,unknown,Вторичка,unknown,https://www.cian.ru/sale/flat/301005114/
9500000,"Москва, ЮВАО, р-н Южнопортовый, Волгоградский просп., 30С1",55.7238056890754,37.6858004770346,Волгоградский проспект,22,23,35.1,22.9,3.9,2024,Без отделки,unknown,На улицу и двор,Монолитный,unknown,unknown,unknown,Новостройка / Апартаменты,unknown,https://www.cian.ru/sale/flat/302925946/
56757400,"Москва, ЦАО, р-н Пресненский, Скай Вью жилой комплекс",55.7597302555572,37.5752511607127,Краснопресненская,7,20,56.8,unknown,unknown,2024,Предчистовая,unknown,unknown,Монолитно-кирпичный,unknown,unknown,unknown,Новостройка / Апартаменты,СЗ Киноцентр,https://www.cian.ru/sale/flat/305452699/
65000000,"Москва, САО, р-н Хорошевский, Ленинградский просп., 37К3",55.793627,37.545087,Аэропорт,36,41,64.6,35.0,10.0,unknown,Дизайнерский,unknown,На улицу и двор,Монолитный,unknown,unknown,unknown,Вторичка,unknown,https://www.cian.ru/sale/flat/306311294/
12988306,"Москва, ЮВАО, р-н Рязанский, Рязанский просп.",55.7195076406786,37.7730046188418,Окская,13,30,38.2,17.0,11.7,2027,"Без отделки, чистовая",2.75,Во двор,Монолитно-кирпичный,unknown,unknown,unknown,Новостройка,Главстрой,https://www.cian.ru/sale/flat/296871994/
20702990,"Москва, ЗАО, р-н Очаково-Матвеевское, Очаково микрорайон",55.6910861022068,37.4599591561574,Аминьевская,6,27,53.9,36.9,5.7,2027,Предчистовая,2.92,unknown,Монолитный,unknown,unknown,unknown,Новостройка,Среда,https://www.cian.ru/sale/flat/303859067/
19350000,"Москва, ЮАО, р-н Даниловский, ул. Лобанова, 2/21",55.702343,37.658967,Автозаводская,4,9,55.1,33.7,8.5,1958,Евроремонт,3.15,На улицу,Кирпичный,Центральное,Нет,unknown,Вторичка,unknown,https://www.cian.ru/sale/flat/303155366/
29260980,"Москва, ЮАО, р-н Даниловский, Хай Лайф жилой комплекс",55.7255172608413,37.6452039325408,Павелецкая,7,39,36.0,unknown,unknown,2027,"Без отделки, предчистовая, чистовая",3.1,unknown,Монолитный,unknown,unknown,unknown,Новостройка,Компания PIONEER,https://www.cian.ru/sale/flat/301460245/
25995000,"Москва, ЮЗАО, р-н Обручевский, ул. Академика Волгина, 2С2",55.6560485847175,37.5223552771048,Калужская,36,47,64.2,31.0,16.4,2024,Чистовая,unknown,На улицу и двор,Монолитный,unknown,unknown,unknown,Новостройка,unknown,https://www.cian.ru/sale/flat/298091337/
8999999,"Московская область, Красногорск городской округ, Николо-Урюпино село, ул. Полковника Глазунова, 15",55.817522,37.207509,Аникеевка,2,7,55.0,unknown,unknown,2022,Дизайнерский,unknown,unknown,unknown,Нет информации,Нет,unknown,Вторичка,unknown,https://krasnogorsk.cian.ru/sale/flat/299929933/
37928955,"Москва, ЦАО, р-н Пресненский, ул. Пресненский Вал, 27С6",55.7740185078958,37.5740440080382,Белорусская,5,33,64.67,22.1,25.9,2027,"Без отделки, предчистовая",2.98,unknown,Монолитный,unknown,unknown,unknown,Новостройка,FORMA,https://www.cian.ru/sale/flat/306305906/
25850000,"Москва, ЮЗАО, р-н Обручевский, ул. Академика Волгина, 2С2",55.6560485847175,37.5223552771048,Калужская,23,47,64.3,40.0,12.6,2024,Чистовая,unknown,unknown,Монолитный,unknown,unknown,unknown,Новостройка,unknown,https://www.cian.ru/sale/flat/291801938/
21300000,"Москва, ЦАО, р-н Мещанский, Большая Переяславская ул., 3К1",55.781109,37.641584,Проспект Мира,10,12,46.8,unknown,8.5,1967,Евроремонт,unknown,unknown,Блочный,Центральное,Нет,unknown,Вторичка,unknown,https://www.cian.ru/sale/flat/306225362/
330421350,"Москва, пер. 1-й Тружеников, 12",55.737826,37.572657,Киевская,2,14,147.05,unknown,unknown,2025,Без отделки,3.55,На улицу,Монолитно-кирпичный,unknown,unknown,unknown,Новостройка,unknown,https://www.cian.ru/sale/flat/297997312/
