price,location,geo_lat,geo_lng,metro,floor,floor_count,square,living_square,kitchen_square,year,finish_type,ceiling_height,view,house_type,heating,breakdown,parking,accomodation_type,author,url,room_count
18374400,"Москва, СВАО, р-н Марьина роща, Тэйт жилой комплекс",55.8025300783107,37.62094537252544,Марьина Роща,34,49,38.28,11.8,unknown,2027,Предчистовая,3.12,unknown,Монолитно-кирпичный,unknown,unknown,unknown,Новостройка,КОРТРОС,https://www.cian.ru/sale/flat/302789697/,1
49954800,"Москва, ЦАО, р-н Таганский, Славянская пл., 2/5с1",55.752541,37.635727,Китай,7,8,53.2,unknown,24.1,2022,Евроремонт,3.0,unknown,Монолитно-кирпичный,unknown,unknown,unknown,Вторичка / Апартаменты,unknown,https://www.cian.ru/sale/flat/301496936/,1
8170000,"Москва, НАО (Новомосковский), Филимонковское поселение, ул. Жемчужная, 1к4",55.552637,37.337172,Филатов Луг,2,5,31.0,unknown,10.0,2021,Дизайнерский,3.0,Во двор,unknown,Нет информации,Нет,unknown,Вторичка,unknown,https://www.cian.ru/sale/flat/303552909/,1
20206500,"Москва, СВАО, р-н Останкинский, ул. Годовикова, 11к5",55.810466,37.624247,Алексеевская,34,37,28.5,21.4,unknown,2024,"Без отделки, предчистовая, чистовая",3.01,На улицу,Монолитно-кирпичный,unknown,unknown,unknown,Новостройка,КОРТРОС,https://www.cian.ru/sale/flat/306568424/,1
17119620,"Москва, ЮАО, р-н Даниловский, Автозаводская ул., 26",55.70659736274,37.6322846801478,Тульская,6,20,38.82,10.6,18.6,2024,unknown,2.85,Во двор,Монолитный,unknown,unknown,unknown,Новостройка,unknown,https://www.cian.ru/sale/flat/305679800/,1
7550000,"Москва, НАО (Новомосковский), Филимонковское поселение, ул. Жемчужная, 1к14",55.551456,37.339499,Филатов Луг,2,5,30.0,15.0,9.0,2021,Дизайнерский,2.8,Во двор,unknown,Нет информации,Нет,unknown,Вторичка,unknown,https://www.cian.ru/sale/flat/306451520/,1
14757511,"Москва, СЗАО, р-н Покровское-Стрешнево, Волоколамское ш., 95/1к6",55.829921,37.406711,Трикотажная,2,27,40.1,12.9,unknown,2027,Предчистовая,2.85,Во двор,Монолитно-кирпичный,unknown,unknown,unknown,Новостройка,MR Group,https://www.cian.ru/sale/flat/306515308/,1
36000000,"Москва, САО, р-н Хорошевский, Ленинградский просп., 37/4",55.793313,37.540533,ЦСКА,5,40,40.0,unknown,unknown,2021,Дизайнерский,3.2,На улицу и двор,Монолитный,Центральное,Нет,unknown,Вторичка,unknown,https://www.cian.ru/sale/flat/304681968/,1
9000000,"Москва, НАО (Новомосковский), Внуковское поселение, ул. Летчика Грицевца, 7",55.62301,37.307411,Пыхтино,4,17,37.1,unknown,7.3,2013,Косметический,unknown,На улицу,Панельный,Индивидуальный тепловой пункт,Нет,unknown,Вторичка,unknown,https://www.cian.ru/sale/flat/306808870/,1
5994720,"Московская область, Одинцовский городской округ, Перхушково село, Равновесие микрорайон",55.6538848796601,37.1203557553635,Толстопальцево,2,6,36.2,13.8,unknown,2026,"Без отделки, предчистовая, черновая, чистовая",2.7,unknown,Монолитно-кирпичный,unknown,unknown,unknown,Новостройка,КОРТРОС,https://odintsovo.cian.ru/sale/flat/301555506/,1
28100000,"Москва, ЦАО, р-н Пресненский, Ходынская ул., 2",55.770806,37.564212,Улица 1905 года,2,44,57.0,44.0,8.0,2018,Дизайнерский,unknown,На улицу,Монолитный,Индивидуальный тепловой пункт,Нет,unknown,Вторичка / Апартаменты,unknown,https://www.cian.ru/sale/flat/298880305/,1
10800000,"Москва, ЮАО, р-н Даниловский, Автозаводская ул., 23С928",55.702313,37.640632,Автозаводская,3,4,45.0,unknown,10.0,unknown,Дизайнерский,unknown,Во двор,unknown,unknown,unknown,unknown,Вторичка / Апартаменты,unknown,https://www.cian.ru/sale/flat/303618522/,1
78259545,"Москва, ЦАО, р-н Пресненский, ул. Костикова, 4к1",55.7612846731082,37.5573009849619,Улица 1905 года,5,21,65.9,18.8,24.9,2023,"Чистовая, чистовая с мебелью",3.0,На улицу,Монолитный,unknown,unknown,unknown,Новостройка,VESPER,https://www.cian.ru/sale/flat/306541560/,1
30900000,"Москва, ЗАО, р-н Раменки, Винницкая ул., 8к3",55.700983,37.493479,Раменки,15,28,40.0,unknown,18.0,2022,Дизайнерский,3.12,На улицу,Монолитный,Индивидуальный тепловой пункт,Нет,unknown,Вторичка,unknown,https://www.cian.ru/sale/flat/306537307/,1
11900000,"Москва, СВАО, р-н Отрадное, Юрловский проезд, 14к1",55.877788,37.613566,Бибирево,8,17,37.0,19.0,7.1,2011,Косметический,2.74,На улицу и двор,Панельный,Автономная котельная,Нет,unknown,Вторичка,unknown,https://www.cian.ru/sale/flat/303859491/,1
134746500,"Москва, ЦАО, р-н Тверской, 1-я Тверская-Ямская ул., 2",55.7710883704405,37.5948676266339,Маяковская,7,9,93.9,unknown,41.3,2023,"Без отделки, чистовая с мебелью",unknown,unknown,Монолитный,unknown,unknown,unknown,Новостройка / Апартаменты,VESPER,https://www.cian.ru/sale/flat/306599727/,1
32000000,"Москва, САО, р-н Хорошевский, Ленинградский просп., 37/4",55.793313,37.540533,ЦСКА,9,40,41.5,23.4,4.9,2021,unknown,unknown,На улицу и двор,Монолитный,Центральное,Нет,unknown,Вторичка,unknown,https://www.cian.ru/sale/flat/299890518/,1
14990000,"Москва, ЮВАО, р-н Нижегородский, Газгольдерная ул., 10",55.727192,37.735746,Нижегородская,24,25,39.0,unknown,16.0,2023,Дизайнерский,2.6,На улицу и двор,unknown,Нет информации,Нет,unknown,Вторичка,unknown,https://www.cian.ru/sale/flat/306525090/,1
29486364,"Москва, САО, р-н Беговой, Ленинградский просп., вл8",55.78085421861,37.5826308664078,Белорусская,3,36,40.8,unknown,unknown,2027,Без отделки,3.08,На улицу и двор,Монолитный,unknown,unknown,unknown,Новостройка,MR Group,https://www.cian.ru/sale/flat/306603306/,1
27000000,"Москва, СЗАО, р-н Хорошево-Мневники, Шелепихинская наб., 34к5",55.764496,37.51149,Шелепиха,6,42,42.0,17.0,11.0,2023,Дизайнерский,3.2,Во двор,unknown,Нет информации,Нет,unknown,Вторичка,unknown,https://www.cian.ru/sale/flat/307014462/,1
4960000,"Москва, СВАО, р-н Марфино, Малая Ботаническая ул., 10А",55.833016,37.588817,Фонвизинская,4,4,16.0,11.0,3.0,1961,Евроремонт,2.8,Во двор,Кирпичный,unknown,unknown,unknown,Вторичка / Апартаменты,unknown,https://www.cian.ru/sale/flat/305916876/,1
57190400,"Москва, ЦАО, р-н Замоскворечье, Космодамианская наб., 4/22С9",55.74569749148403,37.63821427116283,Новокузнецкая,4,6,51.2,12.3,23.9,2024,Без отделки,3.23,На улицу и двор,Монолитно-кирпичный,unknown,unknown,unknown,Новостройка / Апартаменты,Галс-Девелопмент,https://www.cian.ru/sale/flat/303040427/,1
25499999,"Москва, СЗАО, р-н Хорошево-Мневники, ул. Народного Ополчения, 13",55.772943,37.472899,Народное Ополчение,10,21,45.5,15.2,14.9,2023,Косметический,3.0,Во двор,Монолитный,unknown,unknown,unknown,Вторичка / Апартаменты,unknown,https://www.cian.ru/sale/flat/275914039/,1
3050000,"Москва, ЮЗАО, р-н Южное Бутово, ул. Поляны, 5",55.55777,37.555023,Улица Скобелевская,3,31,10.7,3.7,2.0,2018,unknown,unknown,unknown,unknown,Индивидуальный тепловой пункт,Нет,unknown,Вторичка / Апартаменты,unknown,https://www.cian.ru/sale/flat/303456153/,1
17650549,"Москва, ЮЗАО, р-н Котловка, Новые Академики жилой комплекс, 31/2",55.6739946442631,37.581941424605,Нахимовский проспект,2,8,35.92,20.9,5.1,2027,Без отделки,3.4,unknown,Монолитный,unknown,unknown,unknown,Новостройка,Главстрой,https://www.cian.ru/sale/flat/301772288/,1
20268000,"Москва, СЗАО, р-н Хорошево-Мневники, Шелепихинская наб., 40к1",55.766997,37.501753,Народное Ополчение,32,43,37.2,15.7,13.7,2023,Без ремонта,3.15,На улицу и двор,unknown,Нет информации,Нет,unknown,Вторичка,unknown,https://www.cian.ru/sale/flat/303547369/,1
1350000,"Московская область, Сергиево-Посадский городской округ, Путятино деревня, 133",56.3404,38.35446,unknown,1,5,31.1,12.0,9.0,1984,Косметический,unknown,На улицу,Панельный,Центральное,Нет,unknown,Вторичка,unknown,https://www.cian.ru/sale/flat/303274440/,1
129089700,"Москва, ЦАО, р-н Мещанский, Садовая-Сухаревская ул., 14",55.772993,37.627391,Сухаревская,6,13,85.04,45.8,15.8,2025,Чистовая,3.6,На улицу и двор,Монолитно-кирпичный,unknown,unknown,unknown,Новостройка,MR Group,https://www.cian.ru/sale/flat/306186195/,1
31500000,"Москва, САО, р-н Хорошевский, Ленинградский просп., 37/4",55.793313,37.540533,ЦСКА,16,38,41.1,23.0,5.0,2021,Дизайнерский,3.2,На улицу,Монолитный,Центральное,Нет,unknown,Вторичка,unknown,https://www.cian.ru/sale/flat/306867070/,1
31500000,"Москва, САО, р-н Хорошевский, Ленинградский просп., 37/4",55.793313,37.540533,ЦСКА,16,40,41.1,23.4,4.9,2021,unknown,unknown,На улицу и двор,Монолитный,Центральное,Нет,unknown,Вторичка,unknown,https://www.cian.ru/sale/flat/292933473/,1
20884900,"Москва, ЦАО, р-н Басманный, ул. Фридриха Энгельса, 56",55.7767727415349,37.6924907546307,Бауманская,2,27,45.7,26.8,7.8,2026,"Без отделки, чистовая",3.25,Во двор,Монолитно-кирпичный,unknown,unknown,unknown,Новостройка,Галс-Девелопмент,https://www.cian.ru/sale/flat/306243017/,1
16500000,"Москва, СВАО, р-н Останкинский, ул. Цандера, 4К2",55.817264,37.63102,ВДНХ,6,12,38.0,19.0,11.0,1967,Дизайнерский,2.65,Во двор,Блочный,Центральное,Нет,unknown,Вторичка,unknown,https://www.cian.ru/sale/flat/305550068/,1
20800000,"Москва, ЮАО, р-н Даниловский, Дубининская ул., 59к7",55.7173634696842,37.6364943993748,Серпуховская,29,42,38.1,13.1,14.7,2024,unknown,3.0,На улицу,Монолитный,unknown,unknown,unknown,Новостройка,unknown,https://www.cian.ru/sale/flat/305501331/,1
18560670,"Москва, ЗАО, Рублево-Архангельское микрорайон, Сберсити жилой комплекс, В17 квартал",55.78928892619544,37.34223375401157,Опалиха,3,7,41.7,14.2,15.2,2026,"Без отделки, чистовая",unknown,unknown,Монолитно-кирпичный,unknown,unknown,unknown,Новостройка,Рублево-Архангельское,https://www.cian.ru/sale/flat/301919899/,1
63000000,"Москва, ЦАО, р-н Пресненский, 1-й Красногвардейский проезд, 22с1",55.751138,37.533742,Деловой центр,24,79,72.0,50.0,15.0,2019,Дизайнерский,unknown,На улицу и двор,Монолитный,unknown,unknown,unknown,Вторичка / Апартаменты,unknown,https://www.cian.ru/sale/flat/301042658/,1
26155305,"Москва, ЗАО, Рублево-Архангельское микрорайон, Сберсити жилой комплекс, В21 квартал",55.7875762516888,37.3434570638689,Опалиха,4,13,56.43,16.4,21.3,2025,"Без отделки, чистовая",4.1,На улицу,Монолитный,unknown,unknown,unknown,Новостройка,Рублево-Архангельское,https://www.cian.ru/sale/flat/306151922/,1
25000000,"Москва, ЦАО, р-н Пресненский, Шмитовский проезд, 39к2",55.754061,37.524722,Шелепиха,19,32,32.2,unknown,unknown,2019,Дизайнерский,3.0,На улицу и двор,Монолитный,Центральное,Нет,unknown,Вторичка,unknown,https://www.cian.ru/sale/flat/303071841/,1
18500000,"Москва, ЮЗАО, р-н Обручевский, ул. Академика Волгина, 2С2",55.6560485847175,37.5223552771048,Калужская,28,47,34.4,18.5,8.2,2024,Чистовая,unknown,На улицу и двор,Монолитный,unknown,unknown,unknown,Новостройка,unknown,https://www.cian.ru/sale/flat/304298213/,1
23508375,"Москва, ЗАО, Рублево-Архангельское микрорайон, Сберсити жилой комплекс, В19 квартал",55.789558187273,37.3438052008762,Павшино,4,12,45.87,13.4,15.1,2024,Без отделки,3.83,unknown,Монолитный,unknown,unknown,unknown,Новостройка,Рублево-Архангельское,https://www.cian.ru/sale/flat/299137613/,1
4150000,"Московская область, Пушкинский городской округ, Тарасовка село, ул. Пожидаева, 18к4",55.965043,37.816837,unknown,4,5,32.0,19.5,7.0,1982,Косметический,unknown,Во двор,unknown,Нет информации,Нет,unknown,Вторичка,unknown,https://ivanteyevka.cian.ru/sale/flat/305496725/,1
12990000,"Москва, ЦАО, р-н Таганский, ул. Талалихина, 3",55.734207,37.679978,Пролетарская,1,12,38.9,21.0,9.0,1978,Косметический,unknown,Во двор,unknown,Центральное,Нет,unknown,Вторичка,unknown,https://www.cian.ru/sale/flat/305881394/,1
13843599,"Москва, ЗАО, р-н Кунцево, 48-й квартал, Кутузовский Квартал жилой комплекс",55.728900591784566,37.43294646961893,Кунцевская,2,44,31.61,9.4,11.9,2027,"Без отделки, предчистовая",2.92,unknown,Монолитный,unknown,unknown,unknown,Новостройка,Среда,https://www.cian.ru/sale/flat/304753663/,1
13500000,"Москва, ЗАО, р-н Раменки, ул. Лобачевского, 100К3",55.685274,37.483041,Мичуринский проспект,1,16,37.5,21.0,8.9,1981,Евроремонт,2.64,Во двор,Панельный,Центральное,Нет,unknown,Вторичка,unknown,https://www.cian.ru/sale/flat/304885992/,1
19000000,"Москва, ЮЗАО, р-н Обручевский, ул. Академика Волгина, 2С2",55.6560485847175,37.5223552771048,Беляево,4,46,39.7,9.6,15.9,2024,Чистовая,unknown,unknown,Монолитный,unknown,unknown,unknown,Новостройка,unknown,https://www.cian.ru/sale/flat/298087113/,1
22374675,"Москва, ЗАО, р-н Филевский парк, Береговой проезд, 2",55.7597681819349,37.5078063512008,Фили,2,16,45.0,16.4,14.6,2024,Без отделки,3.2,На улицу,Монолитно-кирпичный,unknown,unknown,unknown,Новостройка,Главстрой,https://www.cian.ru/sale/flat/296921064/,1
20018250,"Москва, ЮАО, р-н Даниловский, Автозаводская ул., 26",55.7064943785236,37.6321237476071,Тульская,6,20,43.05,10.6,18.7,2024,unknown,2.85,Во двор,Монолитный,unknown,unknown,unknown,Новостройка,unknown,https://www.cian.ru/sale/flat/305679571/,1
9500000,"Москва, САО, р-н Молжаниновский, Ленинградское ш., 228к6",55.933232,37.386759,Молжаниново,12,15,24.7,unknown,6.8,2023,Евроремонт,unknown,Во двор,unknown,Нет информации,Нет,unknown,Вторичка,unknown,https://www.cian.ru/sale/flat/304155806/,1
30910244,"Москва, ЗАО, Рублево-Архангельское микрорайон, Сберсити жилой комплекс, В20 квартал",55.7887728612671,37.3438008900958,Павшино,3,13,54.02,15.1,19.0,2024,Чистовая,3.53,На улицу,Монолитно-кирпичный,unknown,unknown,unknown,Новостройка,Рублево-Архангельское,https://www.cian.ru/sale/flat/291868741/,1
16500000,"Москва, ЗАО, р-н Кунцево, Рублевское ш., 79",55.738449,37.432609,Молодёжная,13,22,40.0,unknown,10.0,2008,Дизайнерский,unknown,Во двор,unknown,Центральное,Нет,unknown,Вторичка,unknown,https://www.cian.ru/sale/flat/305908801/,1
34000000,"Москва, ЗАО, р-н Очаково-Матвеевское, Нежинская ул., 5к2",55.714506,37.474695,Давыдково,4,26,46.0,unknown,unknown,2021,Без ремонта,3.1,Во двор,Монолитный,Центральное,Нет,unknown,Вторичка,unknown,https://www.cian.ru/sale/flat/287678758/,1
21103320,"Москва, ЗАО, Рублево-Архангельское микрорайон, Сберсити жилой комплекс, В14 квартал",55.7907334001236,37.3426072432844,Павшино,6,9,44.4,14.4,16.1,2026,"Без отделки, чистовая",3.0,На улицу,Монолитно-кирпичный,unknown,unknown,unknown,Новостройка,Рублево-Архангельское,https://www.cian.ru/sale/flat/306151867/,1
11500000,"Москва, СВАО, р-н Северное Медведково, ул. Тихомирова, 5",55.884858,37.647828,Медведково,14,14,37.0,20.0,8.0,2004,Косметический,2.74,Во двор,Панельный,Центральное,Нет,unknown,Вторичка,unknown,https://www.cian.ru/sale/flat/304785312/,1
7100000,"Московская область, Балашиха, мкр. Железнодорожный, ул. Поликахина, 3",55.739894,38.005079,Железнодорожная,4,19,37.7,19.0,9.7,2017,Евроремонт,2.74,Во двор,Монолитный,Центральное,Нет,unknown,Вторичка,unknown,https://balashikha.cian.ru/sale/flat/307026558/,1
95634000,"Москва, ЦАО, р-н Якиманка, Софийская наб., 34С3",55.7463922322426,37.622796830688,Новокузнецкая,2,6,48.3,unknown,unknown,2026,Без отделки,3.03,На улицу,Монолитный,unknown,unknown,unknown,Новостройка,Hutton Development,https://www.cian.ru/sale/flat/304286459/,1
7400000,"Московская область, Королев, мкр. Костино, проезд Макаренко, 3",55.916027,37.863504,Медведково,10,24,41.0,16.7,10.4,2008,Косметический,2.8,На улицу,Кирпичный,Центральное,Нет,unknown,Вторичка,unknown,https://korolev.cian.ru/sale/flat/304247042/,1
95000000,"Москва, ЦАО, р-н Пресненский, 1-й Красногвардейский проезд, 15",55.75052,37.539401,Деловой центр,51,75,123.0,69.0,15.0,2013,Дизайнерский,unknown,На улицу,Монолитный,Нет информации,Нет,unknown,Вторичка / Апартаменты,unknown,https://www.cian.ru/sale/flat/297087850/,1
55770000,"Москва, ЦАО, р-н Хамовники, Коллекция Лужники жилой комплекс",55.7156081703927,37.5715492461217,Воробьёвы горы,7,18,49.8,11.3,unknown,2026,"Без отделки, предчистовая",3.25,unknown,Монолитный,unknown,unknown,unknown,Новостройка,Absolute Premium,https://www.cian.ru/sale/flat/304065730/,1
5500000,"Московская область, Королев, мкр. Завокзальный, Садовая ул., 9",55.930045,37.816962,Медведково,2,5,32.0,18.0,6.0,1960,Косметический,2.5,На улицу,Кирпичный,Центральное,Нет,unknown,Вторичка,unknown,https://korolev.cian.ru/sale/flat/304694342/,1
4480000,"Московская область, Королев, мкр. Завокзальный, Садовая ул., 5",55.928491,37.816765,Медведково,1,5,31.6,18.5,6.5,1959,Без ремонта,2.6,На улицу,Кирпичный,Центральное,Нет,unknown,Вторичка,unknown,https://korolev.cian.ru/sale/flat/304688892/,1
38190900,"Москва, ЦАО, р-н Замоскворечье, Шлюзовая наб., 2/1С1",55.732464,37.642312,Павелецкая,4,8,48.9,24.2,9.7,2028,Без отделки,3.3,Во двор,Монолитный,unknown,unknown,unknown,Новостройка,Галс-Девелопмент,https://www.cian.ru/sale/flat/306687240/,1
58990000,"Москва, ЦАО, р-н Замоскворечье, Садовническая ул., 57С1",55.740558,37.640929,Новокузнецкая,2,7,65.8,48.5,8.0,2016,Дизайнерский,unknown,Во двор,Монолитный,Нет информации,Нет,unknown,Вторичка / Апартаменты,unknown,https://www.cian.ru/sale/flat/306282663/,1
21900000,"Москва, СЗАО, р-н Хорошево-Мневники, ул. Шеногина",55.7678921932403,37.5037184490736,Хорошёво,6,20,39.6,16.3,13.6,2024,Чистовая,unknown,На улицу,Монолитный,unknown,unknown,unknown,Новостройка,unknown,https://www.cian.ru/sale/flat/291448184/,1
19172630,"Москва, ЮАО, р-н Даниловский, Эра жилой комплекс, 1",55.72013197209565,37.64497606666403,Пролетарская,8,27,28.1,15.6,unknown,2026,"Без отделки, предчистовая",3.15,unknown,Монолитный,unknown,unknown,unknown,Новостройка,TEKTA GROUP,https://www.cian.ru/sale/flat/306368174/,1
90000000,"Москва, ЦАО, р-н Пресненский, 1-й Красногвардейский проезд, 22",55.751366,37.536517,Деловой центр,63,66,86.0,18.0,40.0,unknown,Дизайнерский,unknown,unknown,unknown,unknown,unknown,unknown,Вторичка / Апартаменты,unknown,https://www.cian.ru/sale/flat/299723346/,1
5599999,"Московская область, Балашиха, ул. Яганова, 12",55.832348,37.956318,Щёлковская,9,25,32.6,17.0,10.0,2022,Евроремонт,2.75,Во двор,unknown,Нет информации,Нет,unknown,Вторичка,unknown,https://balashikha.cian.ru/sale/flat/298166315/,1
49060000,"Москва, ЦАО, р-н Пресненский, 1-й Красногвардейский проезд, 22с1",55.751138,37.533742,Москва,49,66,44.6,unknown,unknown,2020,"Без отделки, чистовая",3.9,На улицу,Монолитный,unknown,unknown,unknown,Новостройка / Апартаменты,СТ Тауэрс,https://www.cian.ru/sale/flat/304453140/,1
7449000,"Московская область, Балашиха, мкр. Южный, ул. Твардовского, 26",55.794492,37.982154,Новокосино,14,17,45.3,21.9,10.9,2007,Евроремонт,3.0,На улицу,unknown,Центральное,Нет,unknown,Вторичка,unknown,https://balashikha.cian.ru/sale/flat/304384217/,1
139410000,"Москва, ЦАО, р-н Якиманка, Лаврушинский жилой комплекс",55.7396737042422,37.6219303055568,Третьяковская,2,14,72.6,14.2,31.0,2024,Без отделки,3.35,unknown,Монолитный,unknown,unknown,unknown,Новостройка,Sminex,https://www.cian.ru/sale/flat/293713671/,1
15990000,"Москва, СВАО, р-н Марьина роща, Стрелецкая ул., 9К2",55.796835,37.60381,Марьина Роща,9,14,40.0,21.0,9.0,1989,Дизайнерский,2.65,Во двор,Панельный,Центральное,Нет,unknown,Вторичка,unknown,https://www.cian.ru/sale/flat/306409711/,1
8149000,"Московская область, Балашиха, мкр. 28-й, ул. Евстафьева, 9а",55.789249,37.93572,Новокосино,13,17,45.8,22.1,10.8,2006,Евроремонт,2.8,На улицу,unknown,Нет информации,Нет,unknown,Вторичка,unknown,https://balashikha.cian.ru/sale/flat/304549744/,1
18572846,"Москва, САО, р-н Савеловский, Симфония 34 жилой комплекс",55.80630512303944,37.56997097632147,Дмитровская,3,49,38.79,13.1,unknown,2025,"Предчистовая, чистовая",3.0,unknown,Монолитный,unknown,unknown,unknown,Новостройка,MR Group,https://www.cian.ru/sale/flat/300288186/,1
11890000,"Москва, НАО (Новомосковский), бул. Веласкеса, 3к3",55.593288,37.456612,Прокшино,15,15,40.6,20.0,10.0,2018,Дизайнерский,2.7,На улицу,Монолитный,Центральное,Нет,unknown,Вторичка,unknown,https://www.cian.ru/sale/flat/306709200/,1
9250000,"Москва, ВАО, р-н Перово, ул. Плющева, 17К1",55.739245,37.76203,Перово,6,16,34.6,19.5,9.6,1984,Без ремонта,unknown,На улицу,Панельный,Центральное,Нет,unknown,Вторичка,unknown,https://www.cian.ru/sale/flat/305910640/,1
16956808,"Москва, ЮАО, р-н Даниловский, Павелецкая Сити жилой комплекс",55.718765,37.636392,Павелецкая,23,46,31.1,11.3,unknown,2027,"Без отделки, предчистовая",3.0,unknown,"Монолитно-кирпичный, монолитный, кирпичный",unknown,unknown,unknown,Новостройка,MR Group,https://www.cian.ru/sale/flat/307015186/,1
10400000,"Москва, ВАО, р-н Измайлово, Измайловский проезд, 7К1",55.79682,37.768112,Измайловская,11,14,35.2,19.5,9.7,1973,Евроремонт,2.6,На улицу и двор,Блочный,Центральное,Нет,unknown,Вторичка,unknown,https://www.cian.ru/sale/flat/306637427/,1
11500000,"Москва, ЮАО, р-н Братеево, ул. Борисовские Пруды, 16К3",55.634095,37.748655,Борисово,4,14,38.5,20.9,8.5,1997,Евроремонт,2.64,Во двор,Панельный,Центральное,Нет,unknown,Вторичка,unknown,https://www.cian.ru/sale/flat/305750240/,1
24145100,"Москва, ЮВАО, р-н Южнопортовый, Шампайн жилой комплекс, к3",55.7259163702846,37.6786046613761,Волгоградский проспект,9,13,40.02,13.9,unknown,2024,"Без отделки, чистовая",3.05,unknown,Монолитный,unknown,unknown,unknown,Новостройка,TOUCH,https://www.cian.ru/sale/flat/302838453/,1
27500000,"Москва, САО, р-н Беговой, ул. 3-я Ямского Поля, 9",55.781626,37.580894,Белорусская,5,6,43.0,unknown,unknown,2016,Дизайнерский,unknown,unknown,Монолитный,Нет информации,Нет,unknown,Вторичка / Апартаменты,unknown,https://www.cian.ru/sale/flat/293718260/,1
34950000,"Москва, ЗАО, р-н Раменки, просп. Генерала Дорохова, 39к2И",55.715195,37.499085,Минская,10,14,45.0,unknown,12.0,unknown,Без ремонта,3.25,unknown,unknown,unknown,unknown,unknown,Вторичка,unknown,https://www.cian.ru/sale/flat/304921884/,1
15514350,"Москва, ЗАО, р-н Очаково-Матвеевское, Очаково микрорайон",55.6913891160806,37.4603453942553,Аминьевская,3,13,35.3,21.1,5.5,2027,Предчистовая,2.92,unknown,Монолитный,unknown,unknown,unknown,Новостройка,Среда,https://www.cian.ru/sale/flat/303859440/,1
80000000,"Москва, ЦАО, р-н Пресненский, 1-й Красногвардейский проезд, 22с1",55.751138,37.533742,Деловой центр,37,79,78.0,50.0,15.0,2019,Дизайнерский,unknown,На улицу и двор,Монолитный,unknown,unknown,unknown,Вторичка / Апартаменты,unknown,https://www.cian.ru/sale/flat/301042655/,1
31879000,"Москва, ЗАО, р-н Крылатское, Крылатская ул., 23",55.7713506652959,37.4147564920653,Крылатское,4,27,46.32,23.7,17.6,2027,Без отделки,3.1,unknown,Монолитный,unknown,unknown,unknown,Новостройка,TOUCH,https://www.cian.ru/sale/flat/305603339/,1
8950000,"Москва, ЗелАО, р-н Крюково, Зеленоград, мкр. 20-й, к2033",55.973043,37.172224,Зеленоград,10,15,38.3,20.0,9.0,2008,Косметический,2.8,Во двор,Панельный,Центральное,Нет,unknown,Вторичка,unknown,https://www.cian.ru/sale/flat/303790635/,1
15998073,"Москва, СВАО, р-н Марьина роща, Полковая ул., 1С12",55.7986280976491,37.5975001540744,Марьина Роща,2,22,30.9,unknown,unknown,2025,"Без отделки, чистовая",3.0,unknown,Монолитный,unknown,unknown,unknown,Новостройка,Компания PIONEER,https://www.cian.ru/sale/flat/306809955/,1
12700000,"Москва, ЮАО, р-н Нагорный, Чонгарский бул., 6",55.653736,37.61662,Варшавская,4,8,32.0,20.0,6.0,1959,Дизайнерский,2.7,unknown,unknown,Центральное,Нет,unknown,Вторичка,unknown,https://www.cian.ru/sale/flat/306867123/,1
50910200,"Москва, ЦАО, р-н Таганский, Серебрянический пер., 6",55.749748319422416,37.64591733984215,Китай,2,9,49.2,30.5,7.2,2021,Без отделки,3.6,unknown,"Монолитно-кирпичный, монолитный",unknown,unknown,unknown,Новостройка / Пентхаус,Центр-Инвест,https://www.cian.ru/sale/flat/306675141/,1
17559000,"Москва, ЮЗАО, р-н Обручевский, Эвер жилой комплекс",55.65987505964476,37.53329669074726,Воронцовская,24,34,30.0,15.1,unknown,2025,"Без отделки, предчистовая",3.15,unknown,Монолитный,unknown,unknown,unknown,Новостройка,TEKTA GROUP,https://www.cian.ru/sale/flat/305021240/,1
7200000,"Московская область, Котельники, ул. Кузьминская, 7",55.666035,37.868256,Котельники,8,17,40.8,18.0,10.0,2009,Косметический,2.65,Во двор,Кирпичный,Центральное,Нет,unknown,Вторичка,unknown,https://kotelniki.cian.ru/sale/flat/303814533/,1
22080277,"Москва, СВАО, р-н Останкинский, просп. Мира, 95",55.8077844836563,37.6349410489341,Алексеевская,12,15,52.6,unknown,unknown,2021,"Без отделки, чистовая",unknown,unknown,Монолитный,unknown,unknown,unknown,Новостройка / Апартаменты,СИТИ21,https://www.cian.ru/sale/flat/305970241/,1
6000000,"Московская область, Люберцы, мкр. Люберцы 2015 2018, Зенино ЖК Самолет микрорайон, ул. Вертолетная, 16к1",55.706152,37.964214,Некрасовка,14,19,34.0,unknown,7.0,2016,Евроремонт,2.7,Во двор,Кирпичный,Индивидуальный тепловой пункт,Нет,unknown,Вторичка,unknown,https://lyubertsy.cian.ru/sale/flat/304298024/,1
29168290,"Москва, ЮАО, р-н Даниловский, ул. Серпуховский Вал, 7с16",55.7106226257462,37.6143546772458,Тульская,2,15,35.27,unknown,unknown,2027,"Предчистовая, чистовая",3.2,unknown,Монолитно-кирпичный,unknown,unknown,unknown,Новостройка,Колди (Coldy),https://www.cian.ru/sale/flat/303330139/,1
10500000,"Москва, НАО (Новомосковский), Сосенское поселение, ул. Василия Ощепкова, 2",55.553422,37.464284,Новомосковская,7,15,37.3,17.8,10.2,2019,Евроремонт,2.8,На улицу,Монолитный,Центральное,Нет,unknown,Вторичка,unknown,https://www.cian.ru/sale/flat/303853768/,1
22495200,"Москва, ЗАО, р-н Раменки, проезд 4-й Сетуньский, 10Ас2",55.732445568601,37.5336225972051,Парк Победы,18,34,33.6,17.4,5.2,2028,Предчистовая,3.25,На улицу,Монолитно-кирпичный,unknown,unknown,unknown,Новостройка,Dominanta,https://www.cian.ru/sale/flat/304842317/,1
4790000,"Московская область, Люберцы городской округ, Марусино деревня, ул. Заречная, 34к1",55.692161,37.963819,Некрасовка,2,5,34.3,15.0,9.2,2015,Косметический,2.75,Во двор,Блочный,Центральное,Нет,unknown,Вторичка,unknown,https://lyubertsy.cian.ru/sale/flat/306512765/,1
21155491,"Москва, ЮАО, р-н Даниловский, Хай Лайф жилой комплекс",55.7255172608413,37.6452039325408,Павелецкая,3,26,23.9,unknown,unknown,2027,"Без отделки, предчистовая, чистовая",3.1,unknown,Монолитный,unknown,unknown,unknown,Новостройка,Компания PIONEER,https://www.cian.ru/sale/flat/305778449/,1
9000000,"Москва, СЗАО, р-н Северное Тушино, ул. Свободы, 85К1",55.864298,37.446641,Планерная,2,5,31.0,19.5,6.0,1966,Без ремонта,2.7,Во двор,Панельный,Центральное,Нет,unknown,Вторичка,unknown,https://www.cian.ru/sale/flat/305623828/,1
24636196,"Москва, ЦАО, р-н Пресненский, ул. Пресненский Вал, 27С6",55.7740185078958,37.5740440080382,Белорусская,3,33,38.44,14.0,15.8,2027,"Без отделки, предчистовая",2.98,unknown,Монолитный,unknown,unknown,unknown,Новостройка,FORMA,https://www.cian.ru/sale/flat/305740557/,1
9400000,"Москва, ЮАО, р-н Орехово-Борисово Южное, Гурьевский проезд, 31К2",55.610001,37.758419,Зябликово,16,17,38.2,19.2,8.3,1988,Косметический,2.64,Во двор,Панельный,Центральное,Нет,unknown,Вторичка,unknown,https://www.cian.ru/sale/flat/303476158/,1
219412230,"Москва, ЦАО, р-н Хамовники, пер. 1-й Тружеников, 12",55.7378653446,37.5726140846557,Киевская,2,14,101.91,unknown,unknown,2025,Без отделки,3.55,Во двор,Монолитно-кирпичный,unknown,unknown,unknown,Новостройка,Колди (Coldy),https://www.cian.ru/sale/flat/297997304/,1
5300000,"Московская область, Мытищи, мкр. Пироговский, ул. Тимирязева, 8",55.980825,37.73809,Медведково,2,10,44.2,18.0,9.5,2004,Косметический,2.7,На улицу,Кирпичный,Центральное,Нет,unknown,Вторичка,unknown,https://mytishchi.cian.ru/sale/flat/305185857/,1
16610280,"Москва, ЮАО, р-н Нагорный, Твелв жилой комплекс, 1",55.67031574471139,37.61486137301598,Нагорная,11,22,38.8,13.7,unknown,2026,Без отделки,3.0,unknown,Монолитно-кирпичный,unknown,unknown,unknown,Новостройка,TEKTA GROUP,https://www.cian.ru/sale/flat/306923495/,1
9990000,"Москва, СВАО, р-н Лосиноостровский, ул. Коминтерна, 26К2",55.866233,37.684883,Бабушкинская,6,14,35.1,19.4,10.0,1971,Косметический,2.64,Во двор,Блочный,Центральное,Нет,unknown,Вторичка,unknown,https://www.cian.ru/sale/flat/303297071/,1
35000000,"Москва, ЮЗАО, р-н Гагаринский, Ленинский просп., 38",55.704423,37.572207,Ленинский проспект,5,17,50.3,unknown,unknown,2024,"Предчистовая, черновая, чистовая",3.25,unknown,"Монолитно-кирпичный, монолитный",unknown,unknown,unknown,Новостройка,Hutton Development,https://www.cian.ru/sale/flat/305627337/,1
3200000,"Московская область, Щелково, мкр. Заречный, Западная ул., 28",55.932803,37.992565,Щёлковская,4,4,30.1,18.4,5.5,1990,Без ремонта,2.7,На улицу,Кирпичный,Центральное,Нет,unknown,Вторичка,unknown,https://shchyolkovo.cian.ru/sale/flat/305185902/,1
58110000,"Москва, ЦАО, р-н Пресненский, Лайф Тайм жилой комплекс",55.7635848915684,37.5495984651153,Улица 1905 года,2,23,56.0,17.3,20.7,2026,Без отделки,3.43,Во двор,Монолитный,unknown,unknown,unknown,Новостройка,Sminex,https://www.cian.ru/sale/flat/306155439/,1
6931496,"Московская область, Красногорск городской округ, Отрадное поселок, Левел Лесной жилой комплекс",55.8659253816259,37.3299571984547,Пятницкое шоссе,6,15,31.64,10.0,12.3,2027,"Без отделки, предчистовая",2.8,Во двор,Монолитный,unknown,unknown,unknown,Новостройка,Level Group,https://krasnogorsk.cian.ru/sale/flat/306861267/,1
20813850,"Москва, СЗАО, р-н Хорошево-Мневники, Жилой комплекс остров, 5-й квартал, 3",55.748892889777125,37.4570413342142,Молодёжная,15,22,37.5,14.1,12.9,2025,"Без отделки, чистовая с мебелью",3.1,Во двор,"Монолитно-кирпичный, монолитный",unknown,unknown,unknown,Новостройка,ДОНСТРОЙ,https://www.cian.ru/sale/flat/304095593/,1
9600000,"Москва, САО, р-н Тимирязевский, Дмитровское ш., 44К2",55.84356,37.572297,Окружная,7,9,35.0,unknown,9.0,1972,Без ремонта,2.5,unknown,Панельный,Центральное,Нет,unknown,Вторичка,unknown,https://www.cian.ru/sale/flat/306106926/,1
22588300,"Москва, СЗАО, р-н Покровское-Стрешнево, Клубный Город на Реке Примавера жилой комплекс, Вивальди квартал",55.8133713914723,37.4246699067451,Спартак,4,19,42.7,11.9,9.5,2025,Без отделки,6.0,unknown,Монолитный,unknown,unknown,unknown,Новостройка,"ООО ""СЗ ""Стадион ""Спартак""",https://www.cian.ru/sale/flat/306921425/,1
13500000,"Москва, НАО (Новомосковский), ул. Малое Понизовье, 9к1",55.600923,37.412316,Филатов Луг,2,15,41.6,15.1,15.8,2021,Евроремонт,2.6,unknown,Монолитный,Индивидуальный тепловой пункт,Нет,unknown,Вторичка,unknown,https://www.cian.ru/sale/flat/306458819/,1
21060000,"Москва, СЗАО, р-н Хорошево-Мневники, ул. Саляма Адиля, 2А",55.7733694600172,37.467544456344,Народное Ополчение,2,6,39.0,12.5,13.5,2023,Без отделки,3.24,unknown,Монолитный,unknown,unknown,unknown,Новостройка / Апартаменты,Концерн КРОСТ,https://www.cian.ru/sale/flat/306782956/,1
10000000,"Москва, ВАО, р-н Новокосино, Новокосинская ул., 9К2",55.733553,37.852904,Новокосино,6,14,39.0,unknown,10.0,1998,Евроремонт,2.64,unknown,Монолитный,Центральное,Нет,unknown,Вторичка,unknown,https://www.cian.ru/sale/flat/306786475/,1
20631150,"Москва, ЮАО, р-н Даниловский, Большая Тульская ул., 10С5",55.7067918116658,37.618718898147,Тульская,12,41,38.1,14.4,8.6,2027,Без отделки,3.48,Во двор,Монолитный,unknown,unknown,unknown,Новостройка,Мангазея,https://www.cian.ru/sale/flat/305805031/,1
9999000,"Москва, ЮАО, р-н Чертаново Центральное, ул. Красного Маяка, 1К1",55.610789,37.600549,Пражская,3,9,32.5,20.0,6.0,1970,Евроремонт,2.64,Во двор,Панельный,Центральное,Нет,unknown,Вторичка,unknown,https://www.cian.ru/sale/flat/306063571/,1
171990000,"Москва, ЦАО, р-н Басманный, Потаповский пер., 5С4",55.761765709459695,37.64144303802863,Чистые пруды,3,6,78.7,15.7,33.2,2025,Без отделки,3.91,unknown,Монолитный,unknown,unknown,unknown,Новостройка,Sminex,https://www.cian.ru/sale/flat/294328835/,1
14500000,"Москва, ЮВАО, р-н Нижегородский, Газгольдерная ул., 10",55.727192,37.735746,Нижегородская,12,30,36.7,17.0,12.0,2023,Евроремонт,2.8,На улицу,unknown,Нет информации,Нет,unknown,Вторичка,unknown,https://www.cian.ru/sale/flat/302954065/,1
17768630,"Москва, ЗАО, р-н Очаково-Матвеевское, Мичуринский просп., 72А",55.6824358228751,37.4660870859206,Мичуринский проспект,2,24,43.5,unknown,18.5,2025,Без отделки,3.0,unknown,Монолитный,unknown,unknown,unknown,Новостройка,Трансстройинвест,https://www.cian.ru/sale/flat/306658027/,1
5500000,"Москва, СВАО, р-н Отрадное, Алтуфьевское ш., 2",55.849221,37.586607,Владыкино,1,16,19.0,14.0,3.0,1980,Евроремонт,2.7,unknown,Монолитный,unknown,unknown,unknown,Вторичка / Апартаменты,unknown,https://www.cian.ru/sale/flat/306173351/,1
27977499,"Москва, САО, р-н Беговой, ул. 1-я Ямского Поля, 28С3",55.7831190790998,37.5854233447391,Белорусская,5,21,52.75,15.8,unknown,2024,-,3.15,На улицу,Монолитный,unknown,unknown,unknown,Новостройка / Апартаменты,GloraX,https://www.cian.ru/sale/flat/303477026/,1
7700000,"Москва, ЮАО, р-н Даниловский, 2-я Рощинская ул., 10",55.709698,37.61238,Тульская,4,4,20.0,13.0,3.0,1935,Евроремонт,3.5,Во двор,Кирпичный,unknown,unknown,unknown,Вторичка / Апартаменты,unknown,https://www.cian.ru/sale/flat/306034275/,1
24502499,"Москва, ЗАО, р-н Раменки, Винницкая ул., 8к3",55.701212,37.492662,Раменки,6,15,40.5,16.5,10.8,2022,Без отделки,3.12,unknown,Монолитный,unknown,unknown,unknown,Новостройка,Класс,https://www.cian.ru/sale/flat/305011100/,1
4500000,"Московская область, Пушкино, мкр. Мамонтовка, Лесная ул., 1",56.004333,37.793031,Медведково,6,9,34.7,17.6,9.3,1986,Без ремонта,2.7,На улицу,Кирпичный,Центральное,Нет,unknown,Вторичка,unknown,https://pushkino.cian.ru/sale/flat/306475865/,1
18117900,"Москва, СЗАО, р-н Хорошево-Мневники, ул. Генерала Глаголева",55.7829354711414,37.4636456980767,Народное Ополчение,21,28,36.9,12.4,13.2,2026,Без отделки,3.0,Во двор,Монолитный,unknown,unknown,unknown,Новостройка,Концерн КРОСТ,https://www.cian.ru/sale/flat/296745539/,1
4900000,"Московская область, Реутов, мкр. Северный Реутов, ул. Некрасова, 2",55.768851,37.846472,Новокосино,3,9,20.4,15.0,3.0,1979,Косметический,2.7,На улицу,Кирпичный,Центральное,Нет,unknown,Вторичка,unknown,https://reutov.cian.ru/sale/flat/305178361/,1
14215040,"Москва, ЗАО, р-н Можайский, Веер жилой комплекс",55.7086393901126,37.4377574232784,Давыдково,2,59,30.4,9.7,unknown,2028,Предчистовая,2.85,unknown,Монолитно-кирпичный,unknown,unknown,unknown,Новостройка,MR Group,https://www.cian.ru/sale/flat/306611541/,1
6400000,"Московская область, Мытищи, ул. Красная Слобода, 7",55.961803,37.670528,Медведково,5,6,47.7,28.7,14.0,2018,unknown,unknown,Во двор,Монолитный,Центральное,Нет,unknown,Вторичка,unknown,https://mytishchi.cian.ru/sale/flat/303133080/,1
38970906,"Москва, ЗАО, р-н Раменки, ул. Сергея Бондарчука, 2",55.692003,37.481172,Мичуринский проспект,2,16,54.7,16.6,17.2,2026,"Без отделки, чистовая с мебелью",3.65,unknown,Монолитный,unknown,unknown,unknown,Новостройка,ДОНСТРОЙ,https://www.cian.ru/sale/flat/306760378/,1
35500000,"Москва, ЗАО, р-н Филевский парк, Береговой проезд, 5к2",55.756386,37.50884,Фили,13,21,70.0,31.0,14.0,2015,Дизайнерский,unknown,На улицу и двор,Монолитный,Центральное,Нет,unknown,Вторичка,unknown,https://www.cian.ru/sale/flat/303207257/,1
5300000,"Московская область, Долгопрудный, ул. Железнякова, 12",55.946522,37.495428,Водники,4,5,26.4,15.6,2.0,1968,unknown,2.5,На улицу,Кирпичный,Центральное,Нет,unknown,Вторичка,unknown,https://dolgoprudny.cian.ru/sale/flat/306076731/,1
23791900,"Москва, ЗАО, р-н Раменки, Кинематографический квартал",55.692173859999,37.4768693801301,Мичуринский проспект,36,50,47.3,11.9,24.4,2027,"Без отделки, чистовая с мебелью",3.1,Во двор,Монолитный,unknown,unknown,unknown,Новостройка,ДОНСТРОЙ,https://www.cian.ru/sale/flat/306643465/,1
5200000,"Московская область, Пушкинский городской округ, Лесные Поляны поселок, ул. Ленина, 11",55.957832,37.857953,Медведково,6,9,38.5,18.3,7.0,1989,Косметический,2.5,На улицу,Панельный,Центральное,Нет,unknown,Вторичка,unknown,https://ivanteyevka.cian.ru/sale/flat/302950531/,1
4500000,"Московская область, Дмитровский городской округ, Некрасовский рп, Строителей микрорайон, 40",56.129945,37.502597,Хлебниково,6,17,37.6,18.0,12.0,2014,Евроремонт,unknown,Во двор,Монолитный,Центральное,Нет,unknown,Вторичка,unknown,https://dmitrov.cian.ru/sale/flat/306694981/,1
29841000,"Москва, ЗАО, р-н Дорогомилово, 1-й Можайский туп., 8АС1",55.743603,37.55858,Киевская,3,14,30.45,unknown,unknown,2026,Черновая,3.2,unknown,Монолитный,unknown,unknown,unknown,Новостройка / Апартаменты,СЗ ЭЛИТА-ЭКО,https://www.cian.ru/sale/flat/304239699/,1
23800000,"Москва, СЗАО, р-н Хорошево-Мневники, Шелепихинская наб., 34к5",55.764496,37.51149,Шелепиха,31,37,43.0,22.0,12.0,2023,Без ремонта,unknown,На улицу и двор,unknown,Нет информации,Нет,unknown,Вторичка,unknown,https://www.cian.ru/sale/flat/305685406/,1
8999999,"Москва, ЮЗАО, р-н Ясенево, Ясногорская ул., 3",55.609975,37.54109,Ясенево,8,9,33.0,18.0,6.0,1977,Косметический,2.64,Во двор,Панельный,Центральное,Нет,unknown,Вторичка,unknown,https://www.cian.ru/sale/flat/305177798/,1
47500000,"Москва, ЦАО, р-н Пресненский, Краснопресненская наб., 14Ак1",55.75120758568274,37.54959544907324,Деловой центр,15,67,47.5,34.5,8.0,2025,"Без отделки, предчистовая, чистовая",3.05,unknown,Монолитный,unknown,unknown,unknown,Новостройка,Capital Group,https://www.cian.ru/sale/flat/298020354/,1
9200000,"Московская область, Одинцовский городской округ, Новоивановское рп, Можайское ш., 54",55.705458,37.380462,Немчиновка,32,33,38.0,14.0,17.0,2022,Дизайнерский,2.8,Во двор,Монолитный,Центральное,Нет,unknown,Вторичка,unknown,https://odintsovo.cian.ru/sale/flat/303591695/,1
11690000,"Москва, ЮАО, р-н Чертаново Южное, ул. Подольских Курсантов, 6К2",55.607534,37.612623,Пражская,3,9,36.8,21.5,9.3,1972,Евроремонт,2.64,unknown,Панельный,Центральное,Нет,unknown,Вторичка,unknown,https://www.cian.ru/sale/flat/304189998/,1
96004800,"Москва, ЦАО, р-н Хамовники, 531-й квартал, Дом 22 жилой комплекс",55.729906155077,37.5598482625642,Спортивная,3,12,53.1,13.3,22.5,2026,Без отделки,3.5,Во двор,Монолитно-кирпичный,unknown,unknown,unknown,Новостройка,ДОНСТРОЙ,https://www.cian.ru/sale/flat/305505548/,1
27000000,"Москва, СЗАО, р-н Хорошево-Мневники, Шелепихинская наб., 34к5",55.764496,37.51149,Шелепиха,6,42,42.0,15.0,12.0,2023,Евроремонт,3.2,На улицу,unknown,Нет информации,Нет,unknown,Вторичка,unknown,https://www.cian.ru/sale/flat/305768574/,1
4200000,"Московская область, Химки городской округ, Брехово деревня, Школьный микрорайон, к15",55.926323,37.20035,Пятницкое шоссе,17,17,37.5,18.0,9.0,2014,Без ремонта,2.7,Во двор,Панельный,Центральное,Нет,unknown,Вторичка,unknown,https://khimki.cian.ru/sale/flat/305622406/,1
18940557,"Москва, ВАО, р-н Преображенское, Жилой комплекс Преображенская площадь",55.79724014767848,37.711369139011246,Преображенская площадь,2,16,42.44,12.7,16.2,2027,Без отделки,3.15,На улицу,Монолитно-кирпичный,unknown,unknown,unknown,Новостройка,Regions Development,https://www.cian.ru/sale/flat/305436550/,1
31900000,"Москва, ЦАО, р-н Басманный, ул. Земляной Вал, 37",55.755854,37.659461,Чкаловская,9,21,42.1,14.0,20.0,2024,Дизайнерский,unknown,unknown,Монолитный,unknown,unknown,unknown,Вторичка / Апартаменты,unknown,https://www.cian.ru/sale/flat/306977986/,1
7992000,"Москва, ЗАО, р-н Тропарево-Никулино, Ленинский просп., 158",55.651181,37.483095,Юго,22,22,19.4,11.4,3.0,1980,Евроремонт,2.65,unknown,Панельный,unknown,unknown,unknown,Вторичка / Апартаменты,unknown,https://www.cian.ru/sale/flat/300822403/,1
11333073,"Москва, ЮВАО, р-н Рязанский, Рязанский просп.",55.7195076406786,37.7730046188418,Окская,2,14,31.0,8.2,15.4,2027,"Без отделки, чистовая",2.75,Во двор,Монолитно-кирпичный,unknown,unknown,unknown,Новостройка,Главстрой,https://www.cian.ru/sale/flat/296871845/,1
19990000,"Москва, ЮЗАО, р-н Обручевский, ул. Архитектора Власова, 71к2",55.658703,37.531092,Воронцовская,11,34,46.4,17.7,16.7,2023,Без ремонта,3.0,unknown,unknown,Нет информации,Нет,unknown,Вторичка,unknown,https://www.cian.ru/sale/flat/303789273/,1
8280000,"Москва, ЗАО, р-н Тропарево-Никулино, Ленинский просп., 158",55.651181,37.483095,Юго,22,22,14.3,6.3,3.0,1980,Евроремонт,2.65,unknown,Панельный,unknown,unknown,unknown,Вторичка / Апартаменты,unknown,https://www.cian.ru/sale/flat/306651167/,1
177060000,"Москва, ЦАО, р-н Хамовники, Фрунзенская наб., 30",55.7244588775083,37.5843810123283,Фрунзенская,2,10,73.5,17.1,26.6,2027,Без отделки,3.32,Во двор,Монолитно-кирпичный,unknown,unknown,unknown,Новостройка,Sminex,https://www.cian.ru/sale/flat/306342091/,1
9506400,"Москва, Ленинский просп., 158",55.651181,37.483095,Юго,16,22,17.4,13.0,3.0,1980,Евроремонт,2.65,Во двор,Панельный,unknown,unknown,unknown,Вторичка / Апартаменты,unknown,https://www.cian.ru/sale/flat/305694241/,1
8780000,"Москва, ЗАО, р-н Тропарево-Никулино, Ленинский просп., 158",55.651181,37.483095,Юго,22,22,19.4,11.4,3.0,1980,Евроремонт,2.65,unknown,Панельный,unknown,unknown,unknown,Вторичка / Апартаменты,unknown,https://www.cian.ru/sale/flat/306651170/,1
30329984,"Москва, ЗАО, р-н Дорогомилово, Кутузовский проезд, 16А/1",55.744980453384,37.5207647674497,Фили,2,46,43.0,28.8,4.1,2026,"Без отделки, предчистовая, черновая, чистовая",3.115,Во двор,Монолитно-кирпичный,unknown,unknown,unknown,Новостройка,Аеон Девелопмент,https://www.cian.ru/sale/flat/302037457/,1
8850000,"Москва, ЮВАО, р-н Люблино, ул. Верхние Поля, 27С2",55.667361,37.752993,Братиславская,9,9,36.9,unknown,unknown,1980,unknown,2.5,unknown,unknown,Нет информации,Нет,unknown,Вторичка,unknown,https://www.cian.ru/sale/flat/299789842/,1
9547500,"Москва, ЗАО, р-н Тропарево-Никулино, Ленинский просп., 158",55.651181,37.483095,Юго,15,22,18.2,10.2,3.0,1980,Евроремонт,2.65,unknown,Панельный,unknown,unknown,unknown,Вторичка / Апартаменты,unknown,https://www.cian.ru/sale/flat/306150224/,1
20321310,"Москва, САО, р-н Савеловский, Старый Петровско-Разумовский проезд, 1/23С5",55.8005740813269,37.5643332394254,Петровский Парк,2,24,43.9,24.4,7.9,2025,Без отделки,3.6,unknown,Монолитный,unknown,unknown,unknown,Новостройка,РГ-Девелопмент,https://www.cian.ru/sale/flat/296774064/,1
69900000,"Москва, ЦАО, р-н Таганский, Тессинский пер., 1",55.750753,37.649346,Чкаловская,4,8,57.0,18.0,24.0,2023,Без ремонта,unknown,На улицу,unknown,Нет информации,Нет,unknown,Вторичка,unknown,https://www.cian.ru/sale/flat/303370372/,1
7000000,"Московская область, Раменское, ул. Крымская, 3",55.574666,38.255241,Ипподром,3,15,41.0,18.2,13.7,2014,Косметический,unknown,На улицу,Кирпичный,Центральное,Нет,unknown,Вторичка,unknown,https://ramenskoye.cian.ru/sale/flat/306175413/,1
31337816,"Москва, ЮАО, р-н Даниловский, Подольское ш., 3",55.713248,37.62448,Тульская,7,13,58.8,45.1,8.7,2024,Предчистовая,3.0,unknown,Монолитный,unknown,unknown,unknown,Новостройка / Апартаменты,Sense Development,https://www.cian.ru/sale/flat/298147602/,1
11990000,"Москва, ВАО, р-н Соколиная гора, Вольная ул., 4",55.775763,37.726017,Семёновская,2,12,41.0,21.0,10.0,1960,Косметический,2.65,Во двор,Блочный,Центральное,Нет,unknown,Вторичка,unknown,https://www.cian.ru/sale/flat/305539802/,1
9100000,"Московская область, Мытищи городской округ, Нагорное поселок, Датский квартал жилой комплекс, ул. Полковника Романова, 13",55.903337,37.636931,Медведково,8,17,28.0,15.0,6.3,2023,Косметический,3.3,Во двор,unknown,Нет информации,Нет,unknown,Вторичка,unknown,https://mytishchi.cian.ru/sale/flat/306552701/,1
21647012,"Москва, СЗАО, р-н Хорошево-Мневники, Джойс жилой комплекс",55.7741898598792,37.5077421542052,Хорошёвская,5,56,36.38,unknown,unknown,2027,Предчистовая,3.0,unknown,Монолитный,unknown,unknown,unknown,Новостройка,MR Group,https://www.cian.ru/sale/flat/305863288/,1
14900000,"Москва, СВАО, р-н Марфино, ул. Академика Королева, 32",55.823282,37.595869,Улица Милашенкова,13,25,39.2,20.0,10.6,2004,Косметический,2.64,unknown,unknown,Центральное,Нет,unknown,Вторичка,unknown,https://www.cian.ru/sale/flat/307001490/,1
11500000,"Москва, НАО (Новомосковский), бул. Скандинавский, 6",55.566231,37.497629,Потапово,12,12,33.1,18.1,10.0,2020,Евроремонт,3.0,unknown,Блочный,Центральное,Нет,unknown,Вторичка,unknown,https://www.cian.ru/sale/flat/305883187/,1
60650000,"Москва, ЦАО, р-н Пресненский, Электрический пер., 1с22",55.7721200562894,37.5746372169183,Белорусская,5,9,51.4,14.6,27.8,2027,Без отделки,3.35,На улицу,"Монолитно-кирпичный, монолитный",unknown,unknown,unknown,Новостройка,Sminex,https://www.cian.ru/sale/flat/304094788/,1
17500000,"Москва, САО, р-н Головинский, Кронштадтский бул., к1/2",55.84260169257541,37.48794630919246,Водный стадион,15,21,36.5,unknown,unknown,2024,Без отделки,unknown,На улицу,Монолитный,unknown,unknown,unknown,Новостройка,unknown,https://www.cian.ru/sale/flat/297704043/,1
6630000,"Московская область, Раменское, р-н Северный, ул. Семейная, 6",55.591961,38.247175,Ипподром,4,17,32.1,10.0,10.0,2023,Без ремонта,unknown,На улицу,unknown,Нет информации,Нет,unknown,Вторичка,unknown,https://ramenskoye.cian.ru/sale/flat/301159695/,1
16750700,"Москва, СЗАО, р-н Щукино, ул. Берзарина",55.7903578339251,37.4686433695087,Октябрьское поле,26,27,38.2,14.0,10.2,2024,"Без отделки, чистовая",3.0,unknown,"Панельный, монолитный",unknown,unknown,unknown,Новостройка,РГ-Девелопмент,https://www.cian.ru/sale/flat/305145345/,1
9600000,"Москва, ВАО, р-н Гольяново, Уральская ул., 1",55.811619,37.797819,Щёлковская,12,12,39.0,18.0,7.1,1967,Косметический,2.64,Во двор,Блочный,Центральное,Нет,unknown,Вторичка,unknown,https://www.cian.ru/sale/flat/297233032/,1
8100000,"Москва, НАО (Новомосковский), Десеновское поселение, Новые Ватутинки центральный микрорайон",55.5169100103216,37.3426947266928,Прокшино,3,8,31.7,11.9,8.8,2024,Чистовая,unknown,Во двор,Монолитный,unknown,unknown,unknown,Новостройка,unknown,https://www.cian.ru/sale/flat/295998812/,1
38918880,"Москва, ЗАО, р-н Филевский парк, ул. Василисы Кожиной, вл25/1",55.7339776945285,37.4922799384835,Парк Победы,8,17,69.3,unknown,unknown,2024,Предчистовая,3.2,unknown,Монолитно-кирпичный,unknown,unknown,unknown,Новостройка / Апартаменты,VOS’HOD,https://www.cian.ru/sale/flat/300560437/,1
4730000,"Московская область, Истра городской округ, Павловская Слобода село, ул. Озерная, 12",55.818923,37.05829,Нахабино,2,3,43.0,21.4,8.8,2022,Без ремонта,2.9,Во двор,Монолитный,Котел/Квартирное отопление,Нет,unknown,Вторичка,unknown,https://istra.cian.ru/sale/flat/300148132/,1
4000000,"Московская область, Лосино-Петровский городской округ, Свердловский рп, ул. Набережная, 12",55.899058,38.14271,unknown,5,10,33.6,17.4,8.0,1992,Косметический,2.7,На улицу,Панельный,Центральное,Нет,unknown,Вторичка,unknown,https://losino-petrovskiy.cian.ru/sale/flat/306412459/,1
52874642,"Москва, ЮАО, р-н Даниловский, Опус жилой комплекс",55.7253323113978,37.6542770089447,Павелецкая,4,11,56.1,unknown,unknown,2025,Без отделки,3.65,На улицу,Монолитно-кирпичный,unknown,unknown,unknown,Новостройка,Компания PIONEER,https://www.cian.ru/sale/flat/301459957/,1
1700000,"Московская область, Богородский городской округ, Стромынь село, Ногинск-9 микрорайон, ул. Садиковая, 4",56.075755,38.508971,unknown,5,5,26.7,15.7,6.0,1984,Без ремонта,unknown,Во двор,unknown,Нет информации,Нет,unknown,Вторичка,unknown,https://noginsk.cian.ru/sale/flat/306943273/,1
13900000,"Москва, ЗАО, р-н Очаково-Матвеевское, ул. Лобачевского, 41",55.689111,37.471452,Аминьевская,2,25,40.5,unknown,12.4,2011,Евроремонт,2.64,unknown,Панельный,Центральное,Нет,unknown,Вторичка,unknown,https://www.cian.ru/sale/flat/305700481/,1
18422180,"Москва, САО, р-н Левобережный, Ленинградское ш.",55.8631771807269,37.4592192901653,Беломорская,54,57,36.2,10.8,unknown,2028,Без отделки,3.15,unknown,unknown,unknown,unknown,unknown,Новостройка,LEGENDA Intelligent Development,https://www.cian.ru/sale/flat/302223488/,1
21000000,"Москва, ЗАО, р-н Фили-Давыдково, ул. Ивана Франко, 6",55.727841,37.450872,Кунцевская,14,29,42.3,25.0,12.0,2022,Дизайнерский,unknown,unknown,unknown,Нет информации,Нет,unknown,Вторичка / Апартаменты,unknown,https://www.cian.ru/sale/flat/305869716/,1
5950000,"Московская область, Балашиха, мкр. Железнодорожный, ул. Струве, 11",55.736569,37.995916,Некрасовка,16,16,35.2,14.1,13.3,2020,Косметический,2.8,На улицу,Кирпичный,Центральное,Нет,unknown,Вторичка,unknown,https://balashikha.cian.ru/sale/flat/302531443/,1
26385870,"Москва, СЗАО, р-н Щукино, Щукинская ул., 3",55.808285024147,37.4804656230608,Щукинская,16,21,47.6,16.6,16.9,2023,Без отделки,3.1,На улицу,"Монолитно-кирпичный, монолитный",unknown,unknown,unknown,Новостройка,Мангазея,https://www.cian.ru/sale/flat/301581646/,1
21780000,"Москва, СЗАО, р-н Щукино, Щукинская ул., 3",55.808432,37.481226,Щукинская,5,21,48.4,15.8,15.5,2024,Без ремонта,3.1,Во двор,unknown,Нет информации,Нет,unknown,Вторичка,unknown,https://www.cian.ru/sale/flat/299499349/,1
5699999,"Московская область, Солнечногорск городской округ, Андреевка рп, 24А",55.977088,37.144618,Зеленоград,7,16,35.0,19.0,9.6,1985,Косметический,unknown,Во двор,Панельный,Центральное,Нет,unknown,Вторичка,unknown,https://solnechnogorsk.cian.ru/sale/flat/306790831/,1
27920000,"Москва, ЗАО, р-н Раменки, просп. Генерала Дорохова, 39к2Л",55.714866,37.496632,Минская,9,14,44.6,13.8,21.4,2023,"Без отделки, чистовая",3.13,На улицу,Монолитный,unknown,unknown,unknown,Новостройка,Sminex,https://www.cian.ru/sale/flat/306155882/,1
20500000,"Москва, СВАО, р-н Останкинский, ул. Вильгельма Пика",55.8345927286336,37.6394843708787,Ботанический сад,5,38,39.8,15.7,9.7,2024,Чистовая,unknown,На улицу,Монолитный,unknown,unknown,unknown,Новостройка,unknown,https://www.cian.ru/sale/flat/300074305/,1
3000000,"Московская область, Серпухов городской округ, Протвино, проезд Фестивальный, 19",54.879283,37.233129,unknown,12,16,34.0,19.4,9.6,1988,Без ремонта,unknown,unknown,Блочный,Центральное,Нет,unknown,Вторичка,unknown,https://serpukhov.cian.ru/sale/flat/304519192/,1
13093204,"Москва, ЗАО, р-н Очаково-Матвеевское, Левел Мичуринский жилой комплекс, к8",55.68680759773676,37.466837904473415,Мичуринский проспект,2,48,32.5,12.3,10.8,2026,"Без отделки, предчистовая, чистовая",2.72,Во двор,"Монолитно-кирпичный, монолитный",unknown,unknown,unknown,Новостройка,Level Group,https://www.cian.ru/sale/flat/306732265/,1
20000000,"Москва, СВАО, р-н Ростокино, ул. Вильгельма Пика",55.8347149976619,37.6382143449115,Ботанический сад,18,29,39.3,11.2,13.5,2024,Без отделки,unknown,Во двор,Монолитный,unknown,unknown,unknown,Новостройка,unknown,https://www.cian.ru/sale/flat/292547352/,1
24900000,"Москва, ЮАО, р-н Даниловский, бул. Братьев Весниных, 1",55.69816,37.640373,Автозаводская,10,40,42.3,18.0,12.0,2023,Дизайнерский,unknown,Во двор,unknown,Нет информации,Нет,unknown,Вторичка,unknown,https://www.cian.ru/sale/flat/306363095/,1
58149819,"Москва, ЗАО, р-н Дорогомилово, Бадаевский жилой комплекс",55.7517228631563,37.5595977937,Александровский сад,12,18,48.3,unknown,unknown,2025,Неизвестно,unknown,unknown,Монолитный,unknown,unknown,unknown,Новостройка,Capital Group,https://www.cian.ru/sale/flat/301482951/,1
32500000,"Москва, САО, р-н Хорошевский, Ленинградский просп., 37/4",55.793313,37.540533,ЦСКА,7,41,41.0,15.0,15.0,2022,Дизайнерский,unknown,unknown,Монолитный,Центральное,Нет,unknown,Вторичка,unknown,https://www.cian.ru/sale/flat/303637669/,1
3700000,"Московская область, Наро-Фоминск, ул. Пешехонова, 9",55.40457,36.723021,unknown,8,9,37.0,16.0,6.0,1990,Без ремонта,unknown,Во двор,Панельный,Центральное,Нет,unknown,Вторичка,unknown,https://naro-fominsk.cian.ru/sale/flat/304595093/,1
22126280,"Москва, СВАО, р-н Ростокино, Союз жилой комплекс, к6",55.8391699508448,37.642219842633,Ботанический сад,2,23,43.8,13.6,17.2,2026,Без отделки,3.02,На улицу,Монолитно-кирпичный,unknown,unknown,unknown,Новостройка,Группа Родина,https://www.cian.ru/sale/flat/305467903/,1
18500000,"Москва, САО, р-н Хорошевский, ул. Куусинена, 6К13",55.782906,37.520698,Полежаевская,5,9,36.8,17.9,7.2,1968,Дизайнерский,2.8,На улицу и двор,unknown,Центральное,Нет,unknown,Вторичка,unknown,https://www.cian.ru/sale/flat/305730509/,1
5750000,"Московская область, Жуковский, мкр. Быковка, ул. Баженова, 19",55.606639,38.069093,Ильинская,4,14,39.0,18.0,9.0,1984,Косметический,unknown,Во двор,Монолитный,Центральное,Нет,unknown,Вторичка,unknown,https://zhukovsky.cian.ru/sale/flat/302194029/,1
26392833,"Москва, ЦАО, р-н Пресненский, Шелепихинское ш.",55.7549286333382,37.5257209193258,Шелепиха,15,51,44.98,23.2,16.8,2024,Без отделки,3.0,unknown,Монолитно-кирпичный,unknown,unknown,unknown,Новостройка,Класс,https://www.cian.ru/sale/flat/304746725/,1
24000000,"Москва, САО, р-н Хорошевский, Хорошевское ш., 25Ак1",55.777099,37.526932,Полежаевская,13,24,42.9,unknown,14.6,2022,Без ремонта,unknown,unknown,Монолитный,Индивидуальный тепловой пункт,Нет,unknown,Вторичка,unknown,https://www.cian.ru/sale/flat/304298307/,1
10600000,"Москва, ЮВАО, р-н Марьино, ул. Перерва, 33",55.660033,37.743345,Братиславская,16,17,37.1,19.1,7.9,1999,unknown,2.65,unknown,Панельный,Центральное,Нет,unknown,Вторичка,unknown,https://www.cian.ru/sale/flat/306145026/,1
16266240,"Москва, ЮВАО, р-н Лефортово, бул. Сенкевича",55.75277948979924,37.69044739307723,Римская,12,27,28.8,15.9,3.0,2025,"Без отделки, чистовая, чистовая с мебелью",3.1,Во двор,Монолитный,unknown,unknown,unknown,Новостройка,ДОНСТРОЙ,https://www.cian.ru/sale/flat/306642916/,1
24500000,"Москва, САО, р-н Хорошевский, Хорошевское ш., 25Ак1",55.777099,37.526932,Полежаевская,21,24,42.0,16.0,13.0,2023,Без ремонта,unknown,На улицу и двор,Монолитный,Индивидуальный тепловой пункт,Нет,unknown,Вторичка,unknown,https://www.cian.ru/sale/flat/306511648/,1
9478813,"Москва, НАО (Новомосковский), Прокшино жилой комплекс, к11.2.1",55.5949876087218,37.4384320569585,Прокшино,5,13,32.8,12.5,9.9,2025,"Без отделки, предчистовая, черновая, чистовая",2.8,На улицу,"Монолитно-кирпичный, монолитный",unknown,unknown,unknown,Новостройка,А101,https://www.cian.ru/sale/flat/306743026/,1
9215000,"Москва, ЮВАО, р-н Люблино, ул. Верхние Поля, 27С2",55.667361,37.752993,Братиславская,9,9,36.5,unknown,unknown,1980,unknown,2.5,unknown,unknown,Нет информации,Нет,unknown,Вторичка,unknown,https://www.cian.ru/sale/flat/298882717/,1
15575420,"Москва, СЗАО, р-н Щукино, Моментс жилой комплекс",55.8134618581588,37.4839629206526,Стрешнево,22,40,37.1,14.1,15.4,2027,"Без отделки, предчистовая",2.87,unknown,Монолитно-кирпичный,unknown,unknown,unknown,Новостройка,FORMA,https://www.cian.ru/sale/flat/306382173/,1
8764764,"Москва, ЮВАО, р-н Нижегородский, Н'айс Лофт жилой комплекс",55.7298777726314,37.6955966977305,Волгоградский проспект,8,21,30.09,unknown,unknown,2024,Без отделки,3.0,unknown,Монолитно-кирпичный,unknown,unknown,unknown,Новостройка / Апартаменты,Колди (Coldy),https://www.cian.ru/sale/flat/302241734/,1
9500000,"Москва, ЮВАО, р-н Текстильщики, Грайвороновская ул., 6С1",55.718507,37.727616,Текстильщики,2,2,29.0,18.0,6.0,2023,Дизайнерский,5.0,Во двор,Кирпичный,unknown,unknown,unknown,Вторичка / Апартаменты,unknown,https://www.cian.ru/sale/flat/306322040/,1
10120715,"Москва, ЮЗАО, р-н Южное Бутово, Южные Сады жилой комплекс",55.5488124087752,37.5175486910267,Бунинская аллея,12,30,30.3,11.4,9.1,2026,"Без отделки, предчистовая, чистовая",2.99,unknown,Монолитный,unknown,unknown,unknown,Новостройка,А101,https://www.cian.ru/sale/flat/306740291/,1
9337791,"Московская область, Мытищи городской округ, Нагорное поселок, Датский квартал жилой комплекс, ул. Полковника Романова, 13",55.9032405642552,37.6369309999999,Медведково,14,22,41.0,14.7,13.8,2021,"Без отделки, предчистовая, чистовая",2.85,unknown,Монолитно-кирпичный,unknown,unknown,unknown,Новостройка,ГК ФСК,https://mytishchi.cian.ru/sale/flat/306952036/,1
9094642,"Москва, НАО (Новомосковский), Сосенское поселение, Скандинавия жилой комплекс, ул. Эдварда Грига, 5",55.563147,37.497207,Тёплый Стан,7,19,33.8,12.1,9.7,2021,Без отделки,2.89,Во двор,Монолитный,unknown,unknown,unknown,Новостройка,А101,https://www.cian.ru/sale/flat/306739673/,1
8977547,"Москва, НАО (Новомосковский), Деснаречье жилой комплекс",55.531669246112536,37.37542565880017,Ольховая,13,15,33.3,12.1,9.3,2025,"Без отделки, предчистовая, чистовая",2.99,Во двор,Монолитно-кирпичный,unknown,unknown,unknown,Новостройка,А101,https://www.cian.ru/sale/flat/306741744/,1
13400000,"Москва, ЮВАО, р-н Нижегородский, Квартал Издание жилой комплекс",55.7370521420608,37.7473208333432,Нижегородская,19,24,41.2,7.1,18.6,2027,Предчистовая,3.3,unknown,Монолитно-кирпичный,unknown,unknown,unknown,Новостройка,Брусника,https://www.cian.ru/sale/flat/305428175/,1
10148783,"Москва, НАО (Новомосковский), Переделкино Ближнее микрорайон, 18-й квартал",55.6449322233214,37.3309268321957,Мичуринец,4,17,34.3,11.8,unknown,2026,"Без отделки, чистовая",unknown,unknown,"Панельный, монолитный",unknown,unknown,unknown,Новостройка,Абсолют Недвижимость,https://www.cian.ru/sale/flat/306642309/,1
72900000,"Москва, ЦАО, р-н Пресненский, наб. Пресненская, 12",55.749628,37.537425,Деловой центр,79,97,73.0,50.0,18.0,2017,Дизайнерский,unknown,unknown,Монолитный,Нет информации,Нет,unknown,Вторичка / Апартаменты,unknown,https://www.cian.ru/sale/flat/304787065/,1
12835833,"Москва, ВАО, р-н Гольяново, Монтажная ул., вл8/24",55.810835082677976,37.77388383068435,Щёлковская,2,15,38.9,15.3,10.0,2026,"Предчистовая, чистовая",2.82,unknown,Монолитный,unknown,unknown,unknown,Новостройка,1-й ДСК,https://www.cian.ru/sale/flat/300023915/,1
10353000,"Москва, СВАО, р-н Ярославский, просп. Мира, 222",55.8423944458802,37.667731044257856,Ростокино,6,36,35.7,13.8,12.6,2026,"Без отделки, предчистовая, черновая",3.1,Во двор,Монолитный,unknown,unknown,unknown,Новостройка / Апартаменты,ГК Основа,https://www.cian.ru/sale/flat/302079090/,1
10346757,"Московская область, Химки, мкр. Новые Химки, Планерный квартал жилой комплекс",55.8813138544445,37.416565277862,Планерная,9,17,35.82,unknown,unknown,2025,Без отделки,3.0,unknown,Монолитный,unknown,unknown,unknown,Новостройка,ЖилСтрой,https://khimki.cian.ru/sale/flat/302837127/,1
12141686,"Москва, ЮВАО, р-н Нижегородский, Аквилон Бисайд 2.0 жилой комплекс",55.7294183774848,37.7417523743434,Нижегородская,10,28,32.92,11.5,10.9,2027,Предчистовая,2.82,На улицу,Монолитно-кирпичный,unknown,unknown,unknown,Новостройка,Группа Аквилон,https://www.cian.ru/sale/flat/299730421/,1
11590894,"Москва, ЗелАО, р-н Силино, Зеленоград, просп. Генерала Алексеева, 17с1",56.0061432517988,37.1655671653882,Зеленоград,6,14,38.94,unknown,unknown,2026,Чистовая с мебелью,2.9,unknown,Монолитно-кирпичный,unknown,unknown,unknown,Новостройка / Апартаменты,СЗ АЙГРИН,https://www.cian.ru/sale/flat/300193663/,1
19096300,"Москва, САО, р-н Хорошевский, Зорге 9 жилой комплекс, 9Ак7",55.78291902250873,37.50738845767165,Зорге,17,21,39.14,11.8,18.0,2024,Без отделки,3.15,На улицу,Монолитно-кирпичный,unknown,unknown,unknown,Новостройка / Апартаменты,St Michael,https://www.cian.ru/sale/flat/303024993/,1
8500000,"Московская область, Люберцы, мкр. Северные Люберцы, Коммунистическая ул., 4к1",55.697361,37.889762,Лухмановская,13,16,40.4,20.0,12.0,2009,Косметический,3.0,Во двор,Кирпичный,Центральное,Нет,unknown,Вторичка,unknown,https://lyubertsy.cian.ru/sale/flat/303278683/,1
17263886,"Москва, САО, р-н Левобережный, Фестивальная ул., 15К4",55.8599328807994,37.4736171295553,Речной вокзал,8,35,36.1,12.7,13.0,2023,Без отделки,3.1,unknown,Монолитный,unknown,unknown,unknown,Новостройка,Центр-Инвест,https://www.cian.ru/sale/flat/306796873/,1
4070000,"Московская область, Люберцы, Октябрьский просп., 403к1",55.661983,37.914295,Панки,2,4,22.0,11.1,3.0,1938,Евроремонт,unknown,unknown,Кирпичный,unknown,unknown,unknown,Вторичка / Апартаменты,unknown,https://lyubertsy.cian.ru/sale/flat/306503905/,1
6500000,"Московская область, Королев, мкр. Подлипки, ул. Циолковского, 2а",55.921022,37.812426,Медведково,10,10,48.9,15.6,9.5,2002,Без ремонта,2.55,На улицу,Кирпичный,Центральное,Нет,unknown,Вторичка,unknown,https://korolev.cian.ru/sale/flat/304443394/,1
18668400,"Москва, СВАО, р-н Марьина роща, Тэйт жилой комплекс",55.8025300783107,37.62094537252544,Марьина Роща,14,49,39.72,12.1,unknown,2027,Предчистовая,3.12,unknown,Монолитно-кирпичный,unknown,unknown,unknown,Новостройка,КОРТРОС,https://www.cian.ru/sale/flat/302789670/,1
8487000,"Московская область, Реутов, просп. Мира, 22",55.7683851204578,37.8667516527783,Реутов,4,20,38.35,unknown,unknown,2024,Без отделки,2.8,unknown,Монолитно-кирпичный,unknown,unknown,unknown,Новостройка,ПСК НПО Машиностроения,https://reutov.cian.ru/sale/flat/304520159/,1
41304838,"Москва, ЦАО, р-н Пресненский, Московский международный деловой центр Москва-Сити территория, Дом Дау многофункциональный жилой комплекс",55.752453488652414,37.54337320151535,unknown,8,85,50.71,unknown,unknown,2027,Черновая,unknown,unknown,Монолитный,unknown,unknown,unknown,Новостройка,ГК Сумма Элементов,https://www.cian.ru/sale/flat/304791539/,1
8780000,"Москва, ЗАО, р-н Тропарево-Никулино, Ленинский просп., 158",55.651181,37.483095,Юго,22,22,17.2,9.2,3.0,1980,Евроремонт,2.65,unknown,Панельный,unknown,unknown,unknown,Вторичка / Апартаменты,unknown,https://www.cian.ru/sale/flat/306991570/,1
7300000,"Московская область, Балашиха, мкр. Новое Измайлово, ул. Строителей, 3",55.79227,37.889744,Новогиреево,14,25,39.5,unknown,15.1,2015,Евроремонт,2.5,unknown,Монолитный,Центральное,Нет,unknown,Вторичка,unknown,https://balashikha.cian.ru/sale/flat/306768949/,1
15566200,"Москва, СЗАО, р-н Покровское-Стрешнево, Алиа жилой комплекс",55.82127719390692,37.41972719567821,Спартак,2,18,34.8,11.7,13.0,2028,"Без отделки, предчистовая",3.02,unknown,Монолитно-кирпичный,unknown,unknown,unknown,Новостройка,Класс,https://www.cian.ru/sale/flat/306225030/,1
3900000,"Московская область, Коломна, мкр. Щурово, Коммунальная ул., 18А",55.055656,38.8627,unknown,3,3,40.7,unknown,7.5,2012,Косметический,unknown,Во двор,Блочный,Центральное,Нет,unknown,Вторичка,unknown,https://kolomna.cian.ru/sale/flat/306385965/,1
19372498,"Москва, ВАО, р-н Преображенское, Электрозаводская ул., 60",55.7940485686004,37.7092864246052,Преображенская площадь,10,12,34.4,11.8,11.7,2026,"Без отделки, черновая, чистовая",3.78,На улицу,Монолитно-кирпичный,unknown,unknown,unknown,Новостройка,Stenoy,https://www.cian.ru/sale/flat/300878920/,1
6200000,"Московская область, Пушкинский городской округ, Ивантеевка, ул. Дзержинского, 8к2",55.972771,37.912462,Бабушкинская,10,14,46.2,22.0,9.1,2017,Косметический,2.65,Во двор,Монолитный,Центральное,Нет,unknown,Вторичка,unknown,https://ivanteyevka.cian.ru/sale/flat/305174333/,1
14216560,"Москва, ВАО, р-н Соколиная гора, Семеновский Парк 2 жилой комплекс",55.77588038938588,37.734862908072365,Семёновская,3,26,37.6,24.2,4.8,2025,Без отделки,2.85,unknown,Монолитный,unknown,unknown,unknown,Новостройка,РГ-Девелопмент,https://www.cian.ru/sale/flat/301301828/,1
5568000,"Московская область, Люберцы, Октябрьский просп., 403к1",55.661983,37.914295,Панки,2,4,34.8,20.0,7.0,1938,Евроремонт,unknown,unknown,Кирпичный,unknown,unknown,unknown,Вторичка / Апартаменты,unknown,https://lyubertsy.cian.ru/sale/flat/305927323/,1
10900000,"Москва, САО, р-н Ховрино, Флотская ул., 13К3",55.856356,37.502444,Грачёвская,14,18,40.7,21.6,8.0,1975,Без ремонта,2.8,На улицу и двор,Панельный,Центральное,Нет,unknown,Вторичка,unknown,https://www.cian.ru/sale/flat/305932088/,1
8268356,"Московская область, Одинцовский городской округ, Заречье рп, Сколково Уан жилой комплекс",55.68263160343155,37.41050861838773,Мещерская,3,9,27.5,15.1,5.0,2025,Без отделки,2.9,unknown,"Монолитно-кирпичный, монолитный",unknown,unknown,unknown,Новостройка,IKON Development,https://odintsovo.cian.ru/sale/flat/306541019/,1
16500000,"Москва, САО, р-н Беговой, Беговой проезд, 9",55.777884,37.553621,Беговая,6,12,40.3,unknown,12.0,1977,Евроремонт,2.5,unknown,Кирпичный,Центральное,Нет,unknown,Вторичка,unknown,https://www.cian.ru/sale/flat/303121074/,1
10047000,"Москва, ЮАО, р-н Чертаново Южное, Варшавские Ворота жилой комплекс, 1.1",55.5862639785565,37.5998680775201,Аннино,4,9,39.4,13.9,13.0,2025,"Без отделки, предчистовая",3.0,unknown,Монолитный,unknown,unknown,unknown,Новостройка / Апартаменты,РГ-Девелопмент,https://www.cian.ru/sale/flat/298748267/,1
7885000,"Москва, ЮВАО, р-н Люблино, ул. Верхние Поля, 27С2",55.667361,37.752993,Братиславская,6,9,37.0,unknown,unknown,1980,Косметический,2.5,unknown,unknown,Нет информации,Нет,unknown,Вторичка / Апартаменты,unknown,https://www.cian.ru/sale/flat/300137001/,1
5800000,"Московская область, Балашиха, ул. Свердлова, 20",55.823151,37.971338,Щёлковская,5,12,37.0,20.0,10.0,1989,Косметический,2.7,Во двор,Кирпичный,Центральное,Нет,unknown,Вторичка,unknown,https://balashikha.cian.ru/sale/flat/306976924/,1
22004716,"Москва, ЮАО, р-н Нагатино-Садовники",55.68264272073228,37.627767999999726,Нагатинская,12,25,40.2,unknown,unknown,2025,"Без отделки, предчистовая, чистовая",3.15,unknown,Монолитный,unknown,unknown,unknown,Новостройка,Prime Life Development,https://www.cian.ru/sale/flat/306733128/,1
8270000,"Московская область, Королев, мкр. Костино, ул. Академика Легостаева, 8",55.905417,37.86637,Медведково,7,17,44.0,20.0,14.0,2018,Евроремонт,unknown,На улицу,Монолитный,Центральное,Нет,unknown,Вторичка,unknown,https://korolev.cian.ru/sale/flat/297201045/,1
7100000,"Московская область, Балашиха, мкр. 28-й, ул. Разина, 1А",55.79262,37.93218,Салтыковская,13,24,41.4,unknown,11.4,2022,Без ремонта,2.7,На улицу,Панельный,Центральное,Нет,unknown,Вторичка,unknown,https://balashikha.cian.ru/sale/flat/296594731/,1
8977500,"Москва, ЮВАО, р-н Люблино, ул. Верхние Поля, 27С2",55.667361,37.752993,Братиславская,9,9,35.3,unknown,unknown,1980,unknown,2.5,unknown,unknown,Нет информации,Нет,unknown,Вторичка,unknown,https://www.cian.ru/sale/flat/295766411/,1
7100000,"Московская область, Балашиха, мкр. 28-й, ул. Разина, 1А",55.79262,37.93218,Новокосино,14,24,41.3,17.0,10.0,2022,Без ремонта,unknown,Во двор,Панельный,Центральное,Нет,unknown,Вторичка,unknown,https://balashikha.cian.ru/sale/flat/306496312/,1
13841457,"Московская область, Красногорск городской округ, Марьино деревня, ул. Заречная",55.86408054302561,37.304330890859134,Пятницкое шоссе,4,6,36.5,9.1,18.3,2027,Неизвестно,2.96,unknown,unknown,unknown,unknown,unknown,Новостройка,unknown,https://krasnogorsk.cian.ru/sale/flat/306771228/,1
22000000,"Москва, ЦАО, р-н Басманный, ул. Казакова, 7",55.76336,37.659772,Курская,4,4,41.1,21.0,10.0,2022,Дизайнерский,unknown,Во двор,Монолитно-кирпичный,unknown,unknown,unknown,Вторичка / Апартаменты,unknown,https://www.cian.ru/sale/flat/304497557/,1
7150000,"Московская область, Королев, мкр. Первомайский, Советская ул., 47к7",55.941299,37.869837,Медведково,15,17,43.0,15.6,15.0,2016,Евроремонт,unknown,Во двор,Панельный,Центральное,Нет,unknown,Вторичка,unknown,https://korolev.cian.ru/sale/flat/305554486/,1
7637504,"Москва, НАО (Новомосковский), Бунинские Кварталы жилой комплекс, 7.1",55.5388330150519,37.4731881322615,Бунинская аллея,7,17,33.0,11.8,10.6,2025,Чистовая,2.8,Во двор,Монолитный,unknown,unknown,unknown,Новостройка,А101,https://www.cian.ru/sale/flat/306745764/,1
7550000,"Московская область, Одинцово, Северная ул., 5к2",55.680448,37.245939,Рассказовка,9,24,39.0,17.0,11.0,2020,Без ремонта,unknown,unknown,Монолитный,Центральное,Нет,unknown,Вторичка,unknown,https://odintsovo.cian.ru/sale/flat/304858155/,1
7773000,"Московская область, Балашиха, мкр. 28-й, ул. Разина, 1А",55.79262,37.93218,Новокосино,3,24,46.8,unknown,12.2,2022,Без ремонта,unknown,Во двор,Панельный,Центральное,Нет,unknown,Вторичка,unknown,https://balashikha.cian.ru/sale/flat/296593080/,1
33366000,"Москва, САО, р-н Хорошевский, Ленинградский просп., 37/7",55.793752258287,37.543145287378,Аэропорт,11,41,40.2,unknown,unknown,2023,"Предчистовая, чистовая",3.1,unknown,Монолитный,unknown,unknown,unknown,Новостройка,Optima Development,https://www.cian.ru/sale/flat/301275528/,1
8000000,"Московская область, Котельники, проезд 2-й Покровский, 14к1",55.663639,37.858087,Котельники,13,17,33.3,18.8,7.2,2009,Евроремонт,2.8,Во двор,unknown,Центральное,Нет,unknown,Вторичка,unknown,https://kotelniki.cian.ru/sale/flat/302737163/,1
7990000,"Московская область, Королев, мкр. Первомайский, Советская ул., 69",55.939429,37.867897,Медведково,2,17,39.9,14.0,13.0,2018,Дизайнерский,unknown,Во двор,Монолитный,Центральное,Нет,unknown,Вторичка,unknown,https://korolev.cian.ru/sale/flat/306063870/,1
7465079,"Москва, НАО (Новомосковский), № 123 квартал",55.5900578155798,37.4832580770049,Корниловская откроется,2,17,25.7,12.4,5.9,2026,Без отделки,3.1,На улицу,Монолитно-кирпичный,unknown,unknown,unknown,Новостройка,3SGroup,https://www.cian.ru/sale/flat/304854215/,1
9700000,"Московская область, Одинцовский городской округ, Новоивановское рп, Можайское ш., 54",55.705458,37.380462,Немчиновка,26,33,42.5,13.7,17.5,2022,Дизайнерский,2.72,Во двор,Монолитный,Центральное,Нет,unknown,Вторичка,unknown,https://odintsovo.cian.ru/sale/flat/305955351/,1
8800000,"Москва, ЮЗАО, р-н Южное Бутово, Южные Сады жилой комплекс, к2.2",55.54768105980252,37.51622904419211,Бунинская аллея,5,30,28.4,15.2,6.0,2025,unknown,unknown,На улицу,Монолитный,unknown,unknown,unknown,Новостройка,unknown,https://www.cian.ru/sale/flat/304052206/,1
22336479,"Москва, СВАО, р-н Свиблово, проезд Серебрякова, 11-13к1",55.848872,37.650478,Ботанический сад,36,53,47.3,unknown,unknown,2024,"Предчистовая, чистовая",3.0,unknown,Монолитно-кирпичный,unknown,unknown,unknown,Новостройка,AFI Development,https://www.cian.ru/sale/flat/304447867/,1
12300000,"Москва, САО, р-н Дмитровский, Дмитровское ш., 107Ак5",55.877521,37.53888,Яхромская,6,16,34.8,unknown,unknown,2020,Евроремонт,2.8,unknown,Монолитный,Индивидуальный тепловой пункт,Нет,unknown,Вторичка / Апартаменты,unknown,https://www.cian.ru/sale/flat/301426259/,1
8990000,"Московская область, Одинцово, мкр. Новая Трехгорка, ул. Чистяковой, 48",55.702779,37.321515,Кунцевская,23,24,46.5,20.0,10.5,2009,Дизайнерский,unknown,Во двор,Панельный,Центральное,Нет,unknown,Вторичка,unknown,https://odintsovo.cian.ru/sale/flat/305670762/,1
14691000,"Москва, ЮЗАО, р-н Ясенево, Новоясеневский просп., 3В",55.612619,37.518425,Тёплый Стан,3,14,49.8,unknown,unknown,2023,Чистовая,2.8,unknown,Монолитно-кирпичный,unknown,unknown,unknown,Новостройка / Апартаменты,СЗ Спартак,https://www.cian.ru/sale/flat/305052914/,1
19000000,"Москва, ЦАО, р-н Басманный, ул. Казакова, 7",55.76336,37.659772,Курская,4,4,42.1,15.2,10.0,2022,Без ремонта,unknown,Во двор,Монолитно-кирпичный,unknown,unknown,unknown,Вторичка / Апартаменты,unknown,https://www.cian.ru/sale/flat/306805963/,1
9072500,"Москва, ЮВАО, р-н Люблино, ул. Верхние Поля, 27С2",55.667361,37.752993,Братиславская,9,9,35.9,unknown,unknown,1980,unknown,2.5,unknown,unknown,Нет информации,Нет,unknown,Вторичка,unknown,https://www.cian.ru/sale/flat/295766589/,1
12950000,"Москва, ЮАО, р-н Чертаново Южное, Варшавское ш., 170Ек1",55.5826764625274,37.5824374490726,Лесопарковая,11,26,35.0,unknown,unknown,2023,"Предчистовая, чистовая",2.6,unknown,Панельный,unknown,unknown,unknown,Новостройка,Э.К. Девелопмент,https://www.cian.ru/sale/flat/300755282/,1
13500000,"Московская область, Красногорск, мкр. Павшинская пойма, бул. Павшинский, 38",55.811609,37.363969,Пенягино,6,15,52.4,27.5,13.6,2016,Дизайнерский,2.8,Во двор,Монолитный,Центральное,Нет,unknown,Вторичка,unknown,https://krasnogorsk.cian.ru/sale/flat/305322607/,1
9120000,"Москва, ЮВАО, р-н Люблино, ул. Верхние Поля, 27С2",55.667361,37.752993,Братиславская,5,9,36.1,unknown,unknown,1980,Косметический,2.5,unknown,unknown,Нет информации,Нет,unknown,Вторичка,unknown,https://www.cian.ru/sale/flat/294226529/,1
10800000,"Москва, ВАО, р-н Косино-Ухтомский, ул. Николая Старостина, 14",55.7306875653521,37.8516446071308,Новокосино,6,9,37.04,14.8,4.0,2025,Чистовая,3.0,unknown,Монолитно-кирпичный,unknown,unknown,unknown,Новостройка / Апартаменты,Apsis Globe,https://www.cian.ru/sale/flat/296193001/,1
29000000,"Москва, ЮАО, р-н Даниловский, ул. Родченко, 2",55.698958,37.630728,ЗИЛ,11,19,40.0,15.0,20.0,2023,Дизайнерский,3.0,Во двор,unknown,Нет информации,Нет,unknown,Вторичка,unknown,https://www.cian.ru/sale/flat/306309575/,1
17000000,"Москва, СВАО, р-н Останкинский, Сельскохозяйственная ул., 35",55.852076,37.625127,Ботанический сад,7,18,37.1,unknown,17.5,2019,Дизайнерский,2.5,unknown,Монолитный,Центральное,Нет,unknown,Вторичка,unknown,https://www.cian.ru/sale/flat/306101736/,1
12493598,"Московская область, Одинцовский городской округ, Заречье рп, Резиденции Сколково жилой комплекс, 6.2",55.68165570740486,37.39182775551607,Мещерская,4,9,36.9,10.7,unknown,2026,"Без отделки, чистовая",3.03,unknown,Монолитный,unknown,unknown,unknown,Новостройка,Абсолют Недвижимость,https://odintsovo.cian.ru/sale/flat/306285099/,1
8500000,"Московская область, Люберцы, мкр. Красная горка, просп. Гагарина, 27/6",55.692384,37.915373,Люберцы,9,25,45.0,18.0,11.0,2012,Евроремонт,2.7,Во двор,Панельный,Центральное,Нет,unknown,Вторичка,unknown,https://lyubertsy.cian.ru/sale/flat/305851141/,1
21020410,"Москва, ЮВАО, р-н Печатники, Портлэнд жилой комплекс",55.69173812540395,37.71447461398557,Печатники,8,25,40.7,14.8,15.0,2025,"Без отделки, предчистовая",2.85,unknown,Монолитный,unknown,unknown,unknown,Новостройка,FORMA,https://www.cian.ru/sale/flat/301354608/,1
8500000,"Москва, ЮАО, р-н Даниловский, Автозаводская ул., 23С120",55.701278,37.642653,Автозаводская,13,15,20.0,12.0,5.0,2019,Дизайнерский,unknown,unknown,unknown,Центральное,Нет,unknown,Вторичка / Апартаменты,unknown,https://www.cian.ru/sale/flat/306988917/,1
14759321,"Москва, СЗАО, р-н Покровское-Стрешнево, Волоколамское ш., 95/1к6",55.829921,37.406711,Трикотажная,2,27,40.51,15.2,unknown,2027,Предчистовая,2.85,Во двор,Монолитно-кирпичный,unknown,unknown,unknown,Новостройка,MR Group,https://www.cian.ru/sale/flat/306515257/,1
11490000,"Москва, СВАО, р-н Северное Медведково, проезд Шокальского, 55К2",55.883111,37.659658,Медведково,2,16,39.0,21.0,12.9,1985,Евроремонт,2.5,Во двор,Панельный,Центральное,Нет,unknown,Вторичка,unknown,https://www.cian.ru/sale/flat/302905302/,1
8579610,"Москва, НАО (Новомосковский), Дзен-кварталы жилой комплекс",55.5501899832691,37.4742309436898,Бунинская аллея,9,23,34.9,12.5,10.4,2025,Неизвестно,2.87,Во двор,Монолитный,unknown,unknown,unknown,Новостройка,А101,https://www.cian.ru/sale/flat/306743668/,1
27000000,"Москва, ЦАО, р-н Тверской, Садовая-Триумфальная ул., 22/31",55.771808,37.603577,Маяковская,8,17,36.2,22.0,8.0,1968,Евроремонт,2.0,На улицу и двор,Панельный,Центральное,Нет,unknown,Вторичка,unknown,https://www.cian.ru/sale/flat/300812067/,1
13852450,"Москва, СВАО, р-н Марфино, Ботаническая ул., 29К1",55.8338730189793,37.5938131312828,Владыкино,2,5,37.9,10.8,12.0,2024,"Без отделки, черновая",3.2,Во двор,Монолитно-кирпичный,unknown,unknown,unknown,Новостройка / Апартаменты,ГК Основа,https://www.cian.ru/sale/flat/304303435/,1
13150000,"Москва, СВАО, р-н Южное Медведково, Полярная 25 жилой комплекс, 2.3",55.880844,37.635467,Медведково,31,33,42.2,unknown,10.0,2023,Косметический,unknown,Во двор,Монолитный,unknown,unknown,unknown,Вторичка,unknown,https://www.cian.ru/sale/flat/305549351/,1
13850000,"Москва, ЮВАО, р-н Нижегородский, Орехово-Зуевский проезд, 10",55.731212,37.749328,Стахановская,2,5,51.8,25.8,9.1,1955,Косметический,2.64,unknown,Кирпичный,Центральное,Нет,unknown,Вторичка,unknown,https://www.cian.ru/sale/flat/306974502/,1
17920935,"Москва, ЮАО, р-н Даниловский, Автозаводская ул., 24К1",55.7064860931808,37.6351179672961,Тульская,2,16,39.43,unknown,17.0,2025,Чистовая,2.95,Во двор,Монолитный,unknown,unknown,unknown,Новостройка / Апартаменты,РКС Девелопмент,https://www.cian.ru/sale/flat/301447889/,1
13000000,"Москва, ЮАО, р-н Нагатинский затон, Судостроительная ул., 57",55.689162,37.693345,Кленовый бульвар,7,14,38.0,19.0,8.0,1973,Евроремонт,2.64,Во двор,Кирпичный,Центральное,Нет,unknown,Вторичка,unknown,https://www.cian.ru/sale/flat/306873008/,1
4600000,"Московская область, Дмитров, Пушкинская ул., 86",56.341193,37.523375,unknown,9,9,27.8,unknown,unknown,1969,Евроремонт,unknown,На улицу,Кирпичный,Нет информации,Нет,unknown,Вторичка,unknown,https://dmitrov.cian.ru/sale/flat/303165139/,1
10000000,"Москва, СВАО, р-н Лосиноостровский, Шушенская ул., 3К1",55.86794,37.687623,Бабушкинская,2,9,30.7,unknown,5.1,1963,Дизайнерский,2.6,unknown,Кирпичный,Центральное,Нет,unknown,Вторичка,unknown,https://www.cian.ru/sale/flat/306183207/,1
19900000,"Москва, ЗАО, р-н Ново-Переделкино, Чоботовская ул., 2к2",55.643424,37.359343,Новопеределкино,6,24,48.3,18.0,20.0,2021,Дизайнерский,2.8,Во двор,Монолитный,Индивидуальный тепловой пункт,Нет,unknown,Вторичка,unknown,https://www.cian.ru/sale/flat/305374309/,1
9400000,"Москва, НАО (Новомосковский), Новые Ватутинки жилой район, Заречный микрорайон, 5/2",55.52076625517011,37.38723958895485,Новомосковская,4,8,40.5,17.4,11.3,2025,Без отделки,unknown,Во двор,Монолитный,unknown,unknown,unknown,Новостройка,unknown,https://www.cian.ru/sale/flat/305868556/,1
3950000,"Московская область, Солнечногорск, Крестьянская ул., 3",56.186329,36.971863,unknown,1,5,30.9,18.0,6.0,1967,Евроремонт,unknown,Во двор,Панельный,Центральное,Нет,unknown,Вторичка,unknown,https://solnechnogorsk.cian.ru/sale/flat/301109807/,1
19900000,"Москва, САО, р-н Аэропорт, Часовая ул.",55.8130878427581,37.51938123097262,Сокол,9,20,42.8,13.1,18.2,2025,Чистовая,unknown,На улицу и двор,Монолитный,unknown,unknown,unknown,Новостройка,unknown,https://www.cian.ru/sale/flat/305596145/,1
3900000,"Московская область, Дмитров, Рогачевская ул., 35",56.348532,37.509676,unknown,1,4,41.8,17.8,12.5,2022,Без ремонта,unknown,unknown,unknown,Нет информации,Нет,unknown,Вторичка,unknown,https://dmitrov.cian.ru/sale/flat/280104094/,1
7900000,"Москва, НАО (Новомосковский), Сосенское поселение, просп. Куприна, 32к1",55.540266,37.458732,Бунинская аллея,7,12,39.4,14.2,12.3,2021,Без ремонта,2.8,На улицу,unknown,Центральное,Нет,unknown,Вторичка,unknown,https://www.cian.ru/sale/flat/305271393/,1
3750000,"Московская область, Бронницы, Москворецкая ул., 4",55.419836,38.280233,unknown,1,5,30.9,16.0,10.0,1977,Косметический,2.5,На улицу,Панельный,Центральное,Нет,unknown,Вторичка,unknown,https://bronnicy.cian.ru/sale/flat/306389065/,1
14000000,"Москва, ЮАО, р-н Нагатинский затон, просп. Андропова, 19",55.681316,37.665857,Коломенская,4,17,40.2,unknown,unknown,1972,Без ремонта,2.64,unknown,Панельный,Индивидуальный тепловой пункт,Нет,unknown,Вторичка,unknown,https://www.cian.ru/sale/flat/299525163/,1
21800000,"Москва, ЗАО, р-н Крылатское, Рублевское ш., 70к7",55.770897,37.37809,Крылатское,6,24,63.0,34.0,18.0,2017,Евроремонт,2.9,Во двор,Блочный,Центральное,Нет,unknown,Вторичка,unknown,https://www.cian.ru/sale/flat/301952287/,1
18000000,"Москва, СЗАО, р-н Щукино, Большой Волоколамский проезд, 23",55.808457,37.489014,Войковская,19,22,43.0,22.0,14.0,unknown,Дизайнерский,3.0,unknown,unknown,unknown,unknown,unknown,Вторичка / Апартаменты,unknown,https://www.cian.ru/sale/flat/303573991/,1
4210000,"Московская область, Павлово-Посадский городской округ, Электрогорск",55.8834929138785,38.773073435699,unknown,7,9,42.1,17.0,10.5,2024,Черновая,2.8,unknown,Монолитно-кирпичный,unknown,unknown,unknown,Новостройка,Стройспецмонтаж,https://www.cian.ru/sale/flat/301127805/,1
3990000,"Московская область, Дмитров, Рогачевская ул., 35",56.348532,37.509676,unknown,1,4,43.0,18.3,10.1,2022,Без ремонта,unknown,unknown,unknown,Нет информации,Нет,unknown,Вторичка,unknown,https://dmitrov.cian.ru/sale/flat/299089667/,1
10299999,"Москва, ЮВАО, р-н Люблино, ул. Маршала Кожедуба, 16К1",55.673164,37.792519,Люблино,10,12,38.7,20.9,8.6,2003,Дизайнерский,2.64,Во двор,Панельный,Центральное,Нет,unknown,Вторичка,unknown,https://www.cian.ru/sale/flat/302855087/,1
11700000,"Москва, НАО (Новомосковский), Внуковское поселение, бул. Андрея Тарковского, 11",55.624434,37.343101,Рассказовка,18,22,30.0,13.0,10.0,2023,Без ремонта,unknown,unknown,Монолитный,Центральное,Нет,unknown,Вторичка,unknown,https://www.cian.ru/sale/flat/303387198/,1
5700000,"Московская область, Пушкинский городской округ, Ивантеевка, Пионерская ул., 7",55.965955,37.912139,unknown,6,6,37.6,16.0,9.2,2004,Евроремонт,2.7,Во двор,Кирпичный,Центральное,Нет,unknown,Вторичка,unknown,https://ivanteyevka.cian.ru/sale/flat/305286021/,1
12500000,"Москва, СВАО, р-н Северное Медведково, Широкая ул., 15К1",55.888508,37.666045,Медведково,3,14,37.0,unknown,9.5,1969,Дизайнерский,2.7,unknown,Блочный,Центральное,Нет,unknown,Вторичка,unknown,https://www.cian.ru/sale/flat/306692401/,1
16300000,"Москва, ЦАО, р-н Тверской, 1-я Тверская-Ямская ул., 8",55.771844,37.593533,Маяковская,5,5,26.0,13.0,7.0,1912,Дизайнерский,3.5,На улицу и двор,Кирпичный,Центральное,Нет,unknown,Вторичка / Апартаменты,unknown,https://www.cian.ru/sale/flat/289791357/,1
9750000,"Москва, НАО (Новомосковский), Московский, ул. Москвитина, 3к1",55.598985,37.358633,Рассказовка,11,17,38.0,19.0,9.1,2016,Дизайнерский,unknown,На улицу,Панельный,Центральное,Нет,unknown,Вторичка,unknown,https://www.cian.ru/sale/flat/303305643/,1
3750000,"Московская область, Химки городской округ, Брехово деревня, Митино Дальнее микрорайон, 14",55.934623,37.173885,Зеленоград,3,4,31.3,12.9,8.1,2023,Без ремонта,2.8,Во двор,Панельный,unknown,unknown,unknown,Вторичка,unknown,https://khimki.cian.ru/sale/flat/306390195/,1
46300000,"Москва, ЦАО, р-н Замоскворечье, Озерковская наб., 6",55.742321,37.63641,Новокузнецкая,3,5,46.3,32.0,unknown,unknown,Без ремонта,3.1,Во двор,Монолитный,unknown,unknown,unknown,Вторичка / Апартаменты,unknown,https://www.cian.ru/sale/flat/287688964/,1
11758000,"Москва, САО, р-н Хорошевский, Ходынский бул., 2",55.789396,37.536832,ЦСКА,2,15,31.9,15.0,10.0,2016,Без ремонта,3.0,На улицу,Монолитный,Нет информации,Нет,unknown,Вторичка / Апартаменты,unknown,https://www.cian.ru/sale/flat/303682102/,1
9000000,"Московская область, Ленинский городской округ, Битца поселок, Южная Битца жилой комплекс, бул. Южный, 7",55.5594517219651,37.6014087202375,Бульвар Дмитрия,10,24,38.0,13.9,10.8,2024,Без отделки,unknown,Во двор,Панельный,unknown,unknown,unknown,Новостройка,unknown,https://vidnoye.cian.ru/sale/flat/303185998/,1
5999000,"Московская область, Ленинский городской округ, Лопатино рп, ул. Сухановская, 10",55.535585,37.634065,Бульвар Дмитрия,3,9,31.6,16.0,10.0,2017,Евроремонт,2.65,На улицу и двор,Панельный,Автономная котельная,Нет,unknown,Вторичка,unknown,https://vidnoye.cian.ru/sale/flat/300976150/,1
4499000,"Московская область, Дмитровский городской округ, Опытного хозяйства Ермолино поселок, ул. Центральная, 3",56.148368,37.492832,Хлебниково,2,5,37.1,18.1,10.8,1983,Косметический,unknown,На улицу,unknown,Центральное,Нет,unknown,Вторичка,unknown,https://dmitrov.cian.ru/sale/flat/306134678/,1
6600000,"Московская область, Мытищи, бул. Тенистый, 3",55.957963,37.671004,Медведково,1,6,35.2,16.7,9.2,2022,Дизайнерский,2.8,На улицу,unknown,Нет информации,Нет,unknown,Вторичка,unknown,https://mytishchi.cian.ru/sale/flat/292988181/,1
20783822,"Москва, САО, р-н Сокол, ул. Зорге, 25С2",55.7920719360461,37.5049308650805,Октябрьское поле,8,16,36.1,16.2,9.1,2025,Чистовая,3.1,Во двор,Монолитно-кирпичный,unknown,unknown,unknown,Новостройка,А101,https://www.cian.ru/sale/flat/306741338/,1
6200000,"Московская область, Пушкино, мкр. Заветы Ильича, ул. Степана Разина, 2к1",56.046635,37.860189,unknown,3,16,31.9,16.0,7.5,2015,Евроремонт,2.7,На улицу,Монолитный,unknown,unknown,unknown,Вторичка,unknown,https://pushkino.cian.ru/sale/flat/306412438/,1
4200000,"Московская область, Солнечногорск, пер. Механизаторов, 3",56.171658,36.95246,unknown,4,5,30.5,15.3,8.0,1966,Косметический,unknown,Во двор,Панельный,Центральное,Нет,unknown,Вторичка,unknown,https://solnechnogorsk.cian.ru/sale/flat/306269700/,1
8673600,"Москва, СВАО, р-н Отрадное, Отрадная ул., 4А",55.8577117555579,37.6068316355819,Отрадное,7,28,27.8,unknown,7.6,2024,Без отделки,3.0,unknown,Монолитный,unknown,unknown,unknown,Новостройка / Апартаменты,Концерн КРОСТ,https://www.cian.ru/sale/flat/306453399/,1
5200000,"Московская область, Мытищи, бул. Тенистый, 3",55.957963,37.671004,Медведково,3,6,30.2,14.8,8.3,2023,Без ремонта,2.7,На улицу,unknown,Нет информации,Нет,unknown,Вторичка,unknown,https://mytishchi.cian.ru/sale/flat/300925138/,1
8900000,"Москва, ВАО, р-н Соколиная гора, 2-й Вольный пер., 11",55.773788,37.739231,Соколиная гора,1,4,18.8,14.0,2.5,2020,Дизайнерский,4.2,Во двор,Монолитный,Нет информации,Нет,unknown,Вторичка / Апартаменты,unknown,https://www.cian.ru/sale/flat/273077171/,1
6739000,"Московская область, Одинцовский городской округ, Солманово деревня, МЖК Изумрудная Долина территория, 78",55.624439,37.208785,Лесной Городок,3,4,28.5,unknown,unknown,2024,"Без отделки, предчистовая, чистовая",2.8,unknown,"Монолитно-кирпичный, монолитный, кирпичный",unknown,unknown,unknown,Новостройка,СЗ Вектор Недвижимости,https://odintsovo.cian.ru/sale/flat/306307424/,1
23100000,"Москва, ЗАО, р-н Раменки, Винницкая ул., 8к3",55.700983,37.493479,Раменки,14,15,40.5,17.0,11.0,2022,Без ремонта,3.1,На улицу,Монолитный,Индивидуальный тепловой пункт,Нет,unknown,Вторичка,unknown,https://www.cian.ru/sale/flat/305509462/,1
5800000,"Московская область, Мытищи городской округ, Аксаково деревня, ул. Слободская, 4",56.048093,37.586985,Хлебниково,1,4,36.3,21.3,4.5,2023,Дизайнерский,2.65,Во двор,unknown,Нет информации,Нет,unknown,Вторичка,unknown,https://mytishchi.cian.ru/sale/flat/302968129/,1
18540055,"Москва, СВАО, р-н Бутырский, Огородный проезд",55.8116863390715,37.6075428782945,Бутырская,5,47,40.77,13.8,14.9,2027,Черновая,2.95,unknown,Монолитный,unknown,unknown,unknown,Новостройка,Upside Development,https://www.cian.ru/sale/flat/305099762/,1
8500000,"Московская область, Реутов, мкр. Северный Реутов, ул. Победы, 30",55.767894,37.847299,Новогиреево,3,9,34.0,19.3,6.0,1975,Евроремонт,2.64,Во двор,Кирпичный,Центральное,Нет,unknown,Вторичка,unknown,https://reutov.cian.ru/sale/flat/305352603/,1
5880000,"Московская область, Красногорск городской округ, Сабурово деревня, ул. Рождественская, 1",55.873349,37.254482,Пятницкое шоссе,7,8,32.7,unknown,9.5,2022,Евроремонт,2.7,unknown,unknown,Нет информации,Нет,unknown,Вторичка,unknown,https://krasnogorsk.cian.ru/sale/flat/306572399/,1
10079200,"Москва, НАО (Новомосковский), № 70 квартал, 1-й Саларьевский жилой комплекс, 1",55.6255898708996,37.4343985230846,Саларьево,2,14,29.3,10.8,10.5,2026,"Предчистовая, чистовая",2.84,unknown,Панельный,unknown,unknown,unknown,Новостройка,1-й ДСК,https://www.cian.ru/sale/flat/306379487/,1
5500000,"Московская область, Пушкинский городской округ, Ивантеевка, ул. Бережок, 3",55.975123,37.943239,unknown,6,17,36.5,17.0,11.0,2015,Косметический,2.65,На улицу,Монолитный,Центральное,Нет,unknown,Вторичка,unknown,https://ivanteyevka.cian.ru/sale/flat/304584027/,1
6600000,"Московская область, Королев, мкр. Первомайский, Советская ул., 47к8",55.941707,37.870071,Медведково,6,18,40.0,18.7,9.4,2015,Евроремонт,unknown,На улицу и двор,Панельный,Центральное,Нет,unknown,Вторичка,unknown,https://korolev.cian.ru/sale/flat/301791071/,1
8601810,"Москва, НАО (Новомосковский), Газопровод поселок, Смарт Гарден жилой комплекс, 2",55.5862411074385,37.4635897275082,Ольховая,6,16,27.38,9.9,8.6,2026,Без отделки,2.85,unknown,unknown,unknown,unknown,unknown,Новостройка,СЗ ГОРАКС,https://www.cian.ru/sale/flat/306031696/,1
18500000,"Москва, СЗАО, р-н Щукино, Большой Волоколамский проезд, 23",55.808457,37.489014,Щукинская,19,22,43.0,22.0,14.0,unknown,Дизайнерский,3.0,unknown,Монолитный,unknown,unknown,unknown,Вторичка / Апартаменты,unknown,https://www.cian.ru/sale/flat/305393056/,1
24000000,"Москва, ЦАО, р-н Таганский, Наставнический пер., 6",55.751568,37.662964,Курская,6,6,51.0,32.0,6.0,1999,Без ремонта,unknown,На улицу,unknown,Центральное,Нет,unknown,Вторичка,unknown,https://www.cian.ru/sale/flat/294650908/,1
7730647,"Москва, СВАО, р-н Отрадное, Сигнальный проезд, 12",55.8481952935244,37.5955109732234,Владыкино,2,23,19.9,12.9,2.0,2026,"Без отделки, предчистовая, чистовая",unknown,unknown,Монолитно-кирпичный,unknown,unknown,unknown,Новостройка / Апартаменты,Группа Аквилон,https://www.cian.ru/sale/flat/306728315/,1
24200000,"Москва, СЗАО, р-н Хорошево-Мневники, ул. Народного Ополчения, 15К1",55.773348,37.474677,Народное Ополчение,9,48,42.0,20.0,15.0,2022,Дизайнерский,unknown,unknown,Монолитный,Центральное,Нет,unknown,Вторичка,unknown,https://www.cian.ru/sale/flat/297511312/,1
16700000,"Москва, ЗАО, р-н Раменки, ул. Василия Ланового, 1к1",55.69725,37.476752,Аминьевская,3,41,39.0,19.0,9.0,2023,Без ремонта,3.1,Во двор,unknown,Нет информации,Нет,unknown,Вторичка,unknown,https://www.cian.ru/sale/flat/300795378/,1
4593599,"Московская область, Красногорск, Опалиха микрорайон, Никольский Квартал Отрада жилой комплекс, к12",55.84645780266708,37.24247123425492,Аникеевка,2,6,21.3,9.6,5.0,2026,"Без отделки, предчистовая",2.85,unknown,Монолитно-кирпичный,unknown,unknown,unknown,Новостройка,Класс,https://krasnogorsk.cian.ru/sale/flat/305485247/,1
7300000,"Московская область, Ленинский городской округ, Поляна СНТ, ул. Вишневая",55.5978998931337,37.7733199824688,Красногвардейская,7,9,34.9,14.8,7.6,2024,Чистовая,unknown,Во двор,Монолитный,unknown,unknown,unknown,Новостройка,unknown,https://vidnoye.cian.ru/sale/flat/302841926/,1
10950000,"Москва, ЮЗАО, р-н Зюзино, Балаклавский просп., 36К1",55.646726,37.578064,Зюзино,2,5,32.2,unknown,5.5,1964,Косметический,unknown,unknown,Блочный,Центральное,Нет,unknown,Вторичка,unknown,https://www.cian.ru/sale/flat/305972628/,1
6829852,"Москва, НАО (Новомосковский), Родные кварталы жилой комплекс, 2",55.60134751518661,37.22365286444781,Филатов Луг,4,9,33.9,unknown,unknown,2026,"Без отделки, чистовая",2.9,unknown,Монолитно-кирпичный,unknown,unknown,unknown,Новостройка,А101,https://www.cian.ru/sale/flat/306745441/,1
11000000,"Москва, НАО (Новомосковский), ул. Дмитрия Кабалевского, 22",55.500743,37.324003,Ватутинки откроется,5,16,50.4,unknown,11.7,2006,Косметический,2.75,unknown,Монолитный,Центральное,Нет,unknown,Вторичка,unknown,https://www.cian.ru/sale/flat/306226637/,1
23900000,"Москва, СВАО, р-н Останкинский, ул. Годовикова, 11к2",55.81082,37.626268,Алексеевская,4,33,42.9,22.9,15.0,2022,Дизайнерский,2.9,Во двор,Монолитный,Индивидуальный тепловой пункт,Нет,unknown,Вторичка,unknown,https://www.cian.ru/sale/flat/298254403/,1
11975130,"Московская область, Истра городской округ, Павловская Слобода село, ул. Изумрудная, 6к4",55.8230368726571,37.1011105600102,Нахабино,2,4,44.7,unknown,16.9,2023,Без отделки,3.0,Во двор,"Монолитный, кирпичный",unknown,unknown,unknown,Новостройка,Класс,https://istra.cian.ru/sale/flat/307022788/,1
7700000,"Московская область, Мытищи городской округ, Нагорное поселок, Датский квартал жилой комплекс, ул. Полковника Романова, 11",55.9031432717528,37.6399737414133,Медведково,14,18,33.1,15.8,9.3,2023,Без отделки,unknown,На улицу и двор,unknown,unknown,unknown,unknown,Новостройка,unknown,https://mytishchi.cian.ru/sale/flat/305686170/,1
8000000,"Москва, НАО (Новомосковский), Андерсен жилой комплекс, ул. Андерсена, 14к1",55.517531,37.396183,Новомосковская,2,3,41.8,19.0,14.0,2016,Косметический,3.0,Во двор,Кирпичный,Котел/Квартирное отопление,Нет,unknown,Вторичка,unknown,https://www.cian.ru/sale/flat/306022344/,1
9146890,"Московская область, Мытищи, мкр. 25, Имени Г.Т. Шитикова микрорайон, Кит 2 жилой комплекс",55.9174881922486,37.7606739900738,Медведково,7,25,38.76,13.9,12.5,2025,"Без отделки, предчистовая, чистовая",2.82,unknown,Монолитно-кирпичный,unknown,unknown,unknown,Новостройка,СЗ Инвест Груп,https://mytishchi.cian.ru/sale/flat/299593889/,1
25200000,"Москва, ЦАО, р-н Красносельский, Большая Спасская ул., 35",55.776922,37.646911,Комсомольская,4,24,34.0,16.0,12.0,2023,Дизайнерский,3.15,Во двор,Монолитный,Центральное,Нет,unknown,Вторичка,unknown,https://www.cian.ru/sale/flat/298677787/,1
9320000,"Московская область, Щелково, мкр. Центральный, Советская ул., 60",55.9222175422226,37.9943378601184,Щёлковская,16,20,46.6,28.6,13.0,2023,"Без отделки, предчистовая, черновая",3.35,Во двор,Монолитно-кирпичный,unknown,unknown,unknown,Новостройка,СЗ Риверхаус,https://shchyolkovo.cian.ru/sale/flat/302077761/,1
6800000,"Московская область, Пушкинский городской округ, Ивантеевка, Голландский квартал микрорайон, 2",55.970902,37.872532,Комсомольская,1,4,37.0,12.0,14.0,2015,Дизайнерский,unknown,Во двор,Кирпичный,Автономная котельная,Нет,unknown,Вторичка,unknown,https://ivanteyevka.cian.ru/sale/flat/301154812/,1
8100000,"Московская область, Химки, мкр. Старые Химки, ул. Имени К.И. Вороницына, 1к2",55.91402,37.409217,Беломорская,14,17,33.4,unknown,16.7,2019,Евроремонт,2.5,unknown,Монолитный,Центральное,Нет,unknown,Вторичка,unknown,https://khimki.cian.ru/sale/flat/306882438/,1
8916904,"Москва, НАО (Новомосковский), Московский, Первый Московский микрорайон, Первый Московский жилой комплекс, 7-я фаза, 3",55.5972297278289,37.3675374698162,Филатов Луг,14,20,32.9,11.6,unknown,2027,"Без отделки, чистовая",2.73,unknown,"Панельный, монолитный",unknown,unknown,unknown,Новостройка,Абсолют Недвижимость,https://www.cian.ru/sale/flat/304058087/,1
9499999,"Москва, САО, р-н Западное Дегунино, ул. Ивана Сусанина, 4К2",55.86691,37.526681,Селигерская,3,12,34.8,unknown,9.7,1968,Евроремонт,2.5,unknown,unknown,Центральное,Нет,unknown,Вторичка,unknown,https://www.cian.ru/sale/flat/306063573/,1
8322000,"Московская область, Одинцово, Союзный жилой комплекс",55.66069188605289,37.28765830555645,Одинцово,2,19,40.3,unknown,unknown,2026,Без отделки,2.8,unknown,Монолитный,unknown,unknown,unknown,Новостройка,СЗ Вектор Недвижимости,https://odintsovo.cian.ru/sale/flat/305609587/,1
11200000,"Москва, ЮВАО, р-н Марьино, Новочеркасский бул., 36",55.645832,37.734668,Марьино,2,14,38.7,21.0,9.0,1988,Дизайнерский,2.64,Во двор,unknown,Центральное,Нет,unknown,Вторичка,unknown,https://www.cian.ru/sale/flat/302503912/,1
8460000,"Московская область, Ленинский городской округ, Сапроново деревня, Первый Квартал жилой комплекс, 6",55.531926637722,37.7126195423275,Бирюлёво откроется,2,14,43.0,12.5,15.7,2026,"Без отделки, предчистовая",2.7,unknown,"Монолитно-кирпичный, монолитный",unknown,unknown,unknown,Новостройка,Брусника,https://vidnoye.cian.ru/sale/flat/306511159/,1
11350000,"Москва, ЮАО, р-н Бирюлево Восточное, 6-я Радиальная ул., 7/6к1",55.6055,37.655688,Царицыно,13,18,38.0,15.0,10.0,2021,Евроремонт,2.8,Во двор,Кирпичный,Индивидуальный тепловой пункт,Нет,unknown,Вторичка,unknown,https://www.cian.ru/sale/flat/305233689/,1
8293627,"Московская область, Одинцовский городской округ, Крюково деревня, ул. Высокая, 1",55.649423,37.173014,Толстопальцево,2,4,37.5,15.9,13.5,2023,Без отделки,3.1,Во двор,Монолитно-кирпичный,unknown,unknown,unknown,Новостройка,unknown,https://odintsovo.cian.ru/sale/flat/302836201/,1
3290000,"Московская область, Химки городской округ, Брехово деревня, Митино Дальнее микрорайон, 14",55.934623,37.173885,Зеленоград,3,4,30.0,12.0,8.4,2024,unknown,2.7,Во двор,Монолитно-кирпичный,unknown,unknown,unknown,Вторичка,unknown,https://khimki.cian.ru/sale/flat/303187295/,1
6301350,"Московская область, Химки, мкр. Клязьма-Старбеево, Международный квартал, 1-й Химкинский жилой комплекс",55.9478835100059,37.4680788282465,Водники,2,12,33.5,10.3,12.5,2026,Предчистовая,2.72,unknown,Монолитный,unknown,unknown,unknown,Новостройка,unknown,https://khimki.cian.ru/sale/flat/303577996/,1
6100000,"Московская область, Видное, ул. Святослава Рихтера, 2",55.537928,37.642995,Бульвар Дмитрия,4,8,31.1,16.0,8.0,2017,Евроремонт,2.7,На улицу и двор,Кирпичный,Центральное,Нет,unknown,Вторичка,unknown,https://vidnoye.cian.ru/sale/flat/306231657/,1
4150000,"Московская область, Сергиев Посад, мкр. Клементьевский, Вознесенская ул., 109",56.297943,38.132963,unknown,3,5,29.5,15.6,6.0,1977,Косметический,2.7,Во двор,Кирпичный,Центральное,Нет,unknown,Вторичка,unknown,https://sergiyev-posad.cian.ru/sale/flat/306755994/,1
4250000,"Московская область, Богородский городской округ, Старая Купавна, ул. Трудовая, 19А",55.808887,38.190024,Железнодорожная,5,17,33.25,14.5,9.5,2022,Без ремонта,unknown,unknown,Монолитный,Центральное,Нет,unknown,Вторичка,unknown,https://staraya-kupavna.cian.ru/sale/flat/302376889/,1
4300000,"Московская область, Химки городской округ, Брехово деревня, Митино Дальнее микрорайон, 13",55.934618,37.17455,unknown,1,4,28.2,18.0,8.0,2023,Без ремонта,2.7,Во двор,Монолитный,unknown,unknown,unknown,Вторичка,unknown,https://khimki.cian.ru/sale/flat/303473429/,1
4700000,"Московская область, Домодедово городской округ, Домодедово село, ул. Высотная, 9",55.471602,37.701062,Щербинка,12,17,36.0,18.0,10.0,2022,Без ремонта,unknown,На улицу,Монолитный,Центральное,Нет,unknown,Вторичка,unknown,https://domodedovo.cian.ru/sale/flat/306187746/,1
4800000,"Московская область, Солнечногорск, ул. Баранова, 5",56.183498,36.977729,unknown,5,5,31.5,18.0,6.5,1965,Дизайнерский,2.5,Во двор,Кирпичный,Центральное,Нет,unknown,Вторичка,unknown,https://solnechnogorsk.cian.ru/sale/flat/306881231/,1
4800000,"Московская область, Солнечногорск, ул. Баранова, 5",56.183498,36.977729,unknown,5,5,31.5,18.0,6.5,1966,Евроремонт,2.6,Во двор,Кирпичный,Центральное,Нет,unknown,Вторичка,unknown,https://solnechnogorsk.cian.ru/sale/flat/306465471/,1
4800000,"Московская область, Богородский городской округ, Щемилово деревня, ул. Орлова, 26",55.806575,38.090374,Кучино,10,12,31.5,17.0,7.0,2016,Евроремонт,2.7,На улицу,unknown,Центральное,Нет,unknown,Вторичка,unknown,https://noginsk.cian.ru/sale/flat/306141626/,1
4900000,"Московская область, Люберцы, мкр. Люберцы 2015 2018, Зенино ЖК Самолет микрорайон, ул. Вертолетная, 46",55.696357,37.960567,Некрасовка,17,17,29.4,10.0,8.9,2018,Косметический,2.7,На улицу,Кирпичный,Индивидуальный тепловой пункт,Нет,unknown,Вторичка,unknown,https://lyubertsy.cian.ru/sale/flat/300950776/,1
5200000,"Московская область, Балашиха, мкр. Саввино, ул. Безымянная, 6",55.741541,38.039637,Некрасовка,12,17,31.8,16.8,10.0,2022,Косметический,2.65,На улицу,unknown,Нет информации,Нет,unknown,Вторичка,unknown,https://balashikha.cian.ru/sale/flat/304067431/,1
5200000,"Московская область, Химки, мкр. Новогорск, 2",55.891895,37.346605,Пятницкое шоссе,3,5,31.1,unknown,6.0,1964,Косметический,2.7,Во двор,unknown,Нет информации,Нет,unknown,Вторичка,unknown,https://khimki.cian.ru/sale/flat/304957462/,1
5200000,"Московская область, Лосино-Петровский городской округ, Свердловский рп, ул. Строителей, 12",55.900971,38.148674,unknown,12,16,38.2,18.0,9.0,2014,Евроремонт,unknown,Во двор,unknown,Индивидуальный тепловой пункт,Нет,unknown,Вторичка,unknown,https://losino-petrovskiy.cian.ru/sale/flat/280937989/,1
5280000,"Московская область, Солнечногорск городской округ, Андреевка рп, ул. Староандреевская, 43к2",55.984194,37.131871,Зеленоград,13,17,30.0,16.0,7.0,2015,Дизайнерский,2.7,Во двор,Монолитный,Автономная котельная,Нет,unknown,Вторичка,unknown,https://solnechnogorsk.cian.ru/sale/flat/299832015/,1
5300000,"Московская область, Ленинский городской округ, Володарского поселок, Зеленая ул., 43",55.502477,37.947694,Удельная,8,10,40.9,20.0,10.0,2013,Косметический,unknown,На улицу,Панельный,Центральное,Нет,unknown,Вторичка,unknown,https://vidnoye.cian.ru/sale/flat/294469337/,1
5300000,"Москва, ТАО (Троицкий), Кленовское поселение, Витро Вилладж База отдыха, к1",55.336165,37.325827,unknown,1,5,35.6,20.6,10.0,2014,Дизайнерский,3.5,Во двор,Монолитно-кирпичный,unknown,unknown,unknown,Вторичка / Апартаменты,unknown,https://www.cian.ru/sale/flat/303513705/,1
5365753,"Московская область, Дмитровский городской округ, Рыбаки деревня, Зеленый Город жилой комплекс",56.0606088363197,37.355606806854,Лобня,3,5,36.89,unknown,unknown,2025,Чистовая,unknown,unknown,Кирпичный,unknown,unknown,unknown,Новостройка,unknown,https://dmitrov.cian.ru/sale/flat/306361551/,1
5475000,"Московская область, Видное, бул. Мстислава Ростроповича, 4к1",55.537342,37.648367,Бульвар Дмитрия,7,8,34.7,16.0,9.0,2022,Без ремонта,2.8,Во двор,Монолитно-кирпичный,unknown,unknown,unknown,Вторичка,unknown,https://vidnoye.cian.ru/sale/flat/306199872/,1
5499999,"Московская область, Щелково, Потаповский микрорайон, 1к2",55.90959,38.048665,Щёлковская,1,18,41.0,19.0,9.0,2017,Косметический,unknown,Во двор,Блочный,Автономная котельная,Нет,unknown,Вторичка,unknown,https://shchyolkovo.cian.ru/sale/flat/299409162/,1
5599000,"Московская область, Мытищи, мкр. 5, ул. Терешковой, 12",55.907813,37.729458,Медведково,1,5,30.0,18.0,6.0,1961,Евроремонт,2.5,unknown,Кирпичный,Автономная котельная,Нет,unknown,Вторичка,unknown,https://mytishchi.cian.ru/sale/flat/304090457/,1
5500000,"Московская область, Щелково, мкр. Центральный, Краснознаменская ул., 6",55.915437,37.996599,Щёлковская,5,5,32.0,17.0,5.5,1974,Косметический,unknown,Во двор,Кирпичный,Центральное,Нет,unknown,Вторичка,unknown,https://shchyolkovo.cian.ru/sale/flat/306954142/,1
5600700,"Московская область, Балашиха, мкр. Железнодорожный, ул. Лесопарковая, 18",55.752977,38.00021,Железнодорожная,12,17,39.1,19.2,7.5,2016,Без ремонта,2.7,На улицу,Панельный,Центральное,Нет,unknown,Вторичка,unknown,https://balashikha.cian.ru/sale/flat/305671930/,1
5690000,"Московская область, Балашиха, мкр. Железнодорожный, ул. Струве, 7",55.739286,37.996437,Железнодорожная,8,17,41.7,22.0,9.5,2015,Без ремонта,2.7,Во двор,Панельный,Центральное,Нет,unknown,Вторичка,unknown,https://balashikha.cian.ru/sale/flat/306276343/,1
